sr,stop_id,stop_name,stop_desc,source,rank,stop_lat,stop_lon,po_code
0,PO_0,Buchannapet -506221,506221,postoffice,7,17.79063,79.03387,163467
1,PO_1,Amradikalan -501202,501202,postoffice,7,17.56382,77.89242,310501
2,PO_2,Ananthavaram Po,,postoffice,7,17.69481,77.80982,173100
3,PO_3,Ganugupahad -506175,506175,postoffice,7,17.7893,79.13808,166621
4,PO_4,Atmakur Bo -502291,502291,postoffice,7,17.682,77.93438,173250
5,PO_5,Barwad Bo -501106,501106,postoffice,7,17.44999,77.79691,383252
6,PO_6,Bobilgaom Post Office -502291,502291,postoffice,7,17.70738,77.91053,173251
7,PO_7,Buchanpalli -501202,501202,postoffice,7,17.52354,77.73945,334388
8,PO_8,Budhera,,postoffice,7,17.62913,77.84137,180335
9,PO_9,Kamkole -502345,502345,postoffice,7,17.64884,77.80773,172836
10,PO_10,Khammampally -502345,502345,postoffice,7,17.69769,77.8446,194648
11,PO_11,Kolkonda -501202,501202,postoffice,7,17.64586,77.82023,310215
12,PO_12,Komshetpally,,postoffice,7,17.62347,77.8334,180334
13,PO_13,Konapur Bo -502291,502291,postoffice,7,17.64174,77.88364,172316
14,PO_14,Kothapally Bo -501106,501106,postoffice,7,17.41115,77.74074,383209
15,PO_15,Kothlapur -501202,501202,postoffice,7,17.53957,77.80263,334054
16,PO_16,Kotmarpalli Bo -501202,501202,postoffice,7,17.50639,77.79348,334183
17,PO_17,Marigadi Bo -506175,506175,postoffice,7,17.77804,79.17559,167796
18,PO_18,Maddikunta Bo -502291,502291,postoffice,7,17.60263,77.91685,172304
19,PO_19,Malasomaram -501106,501106,postoffice,7,17.46053,77.76152,383226
20,PO_20,Mallikarjunapally Bo A/w Kamkole So,,postoffice,7,17.72725,77.87946,234727
21,PO_21,Marpalli Kalan -501202,501202,postoffice,7,17.54052,77.77154,334572
22,PO_22,Munipally Bo A/w Kamkole So,,postoffice,7,17.69079,77.86607,234724
23,PO_23,Panchalingal -501202,501202,postoffice,7,17.55545,77.81312,293265
24,PO_24,Patloor -501202,501202,postoffice,7,17.58486,77.79172,292564
25,PO_25,Pocharam -502293,502293,postoffice,7,17.72935,77.95052,174409
26,PO_26,Ps Nagar Bo -502291,502291,postoffice,7,17.62303,77.92694,170888
27,PO_27,Ravulpally -501106,501106,postoffice,7,17.47756,77.77076,383231
28,PO_28,Peddapahad -506175,506175,postoffice,7,17.77704,79.09872,166975
29,PO_29,Sirpura -501202,501202,postoffice,7,17.52478,77.84357,261573
30,PO_30,Suraram Bo -502291,502291,postoffice,7,17.61872,77.8959,172312
31,PO_31,Thangadpally Bo -502291,502291,postoffice,7,17.59775,77.8846,172307
32,PO_32,Tummalpalli -501202,501202,postoffice,7,17.58211,77.83595,292846
33,PO_33,Yennaram -501106,501106,postoffice,7,17.42819,77.75513,244090
34,PO_34,Yennaram Bo -501106,501106,postoffice,7,17.42834,77.75512,383244
35,PO_35,501102 -501102,501102,postoffice,7,17.35003,77.90476,177750
36,PO_36,501503 -501503,501503,postoffice,7,17.37808,78.16323,221780
37,PO_37,A I E R C Puram -502032,502032,postoffice,7,17.50289,78.31149,176401
38,PO_38,Admin-building Po. -502032,502032,postoffice,7,17.49229,78.29063,169502
39,PO_39,Admin-building Po. R C Puram -502032,502032,postoffice,7,17.49229,78.29063,170513
40,PO_40,Aie Bollaram S O -502325,502325,postoffice,7,17.55341,78.35049,177873
41,PO_41,Air Force Academy So -500043,500043,postoffice,7,17.65306,78.39707,184074
42,PO_42,Allampalli -500102,500102,postoffice,7,17.35011,77.90486,171313
43,PO_43,Alur -501503,501503,postoffice,7,17.33008,78.06925,227604
44,PO_44,Ameenpur B O -502032,502032,postoffice,7,17.52455,78.32272,177755
45,PO_45,Ananthagiripally -501102,501102,postoffice,7,17.33469,77.90323,381759
46,PO_46,Anatha Sagar Bo -502306,502306,postoffice,7,17.56267,77.95268,174959
47,PO_47,Annarram Bo -502313,502313,postoffice,7,17.63337,78.3794,172795
48,PO_48,Antaram -501503,501503,postoffice,7,17.32587,78.03292,227417
49,PO_49,Athvelly -501102,501102,postoffice,7,17.38619,77.88182,381371
50,PO_50,Bdl Bhanoor So -502305,502305,postoffice,7,17.47012,78.16303,171900
51,PO_51,Bhanoor Bo -502305,502305,postoffice,7,17.49141,78.17707,171792
52,PO_52,Bharathi Nagar -502032,502032,postoffice,7,17.50446,78.28855,172931
53,PO_53,Bharathinagar -502032,502032,postoffice,7,17.50449,78.2885,168870
54,PO_54,Bonthapally Bo. -502313,502313,postoffice,7,17.66263,78.36584,170532
55,PO_55,Borpatla -502296,502296,postoffice,7,17.673,78.16666,295228
56,PO_56,Bulkapur -501203,501203,postoffice,7,17.44304,78.14803,236194
57,PO_57,Cheriyal Bo -502285,502285,postoffice,7,17.55332,78.13173,183627
58,PO_58,Chidruppa -502296,502296,postoffice,7,17.62259,78.21052,265729
59,PO_59,Chintalcheru -502296,502296,postoffice,7,17.6506,78.2363,266261
60,PO_60,Chitkul Bo -502307,502307,postoffice,7,17.55919,78.22319,170652
61,PO_61,Chitkul Bo -502307,502307,postoffice,7,17.55919,78.22319,170704
62,PO_62,Chowtkur -502273,502273,postoffice,7,17.75225,78.09009,167881
63,PO_63,Damargidda -501503,501503,postoffice,7,17.34804,78.10572,227759
64,PO_64,Dhannaram -501102,501102,postoffice,7,17.34116,77.93633,202367
65,PO_65,Dharur So -501121,501121,postoffice,7,17.31456,77.77908,375498
66,PO_66,Venkiryal -506175,506175,postoffice,7,17.81106,79.12407,166624
67,PO_67,Doultabad -502296,502296,postoffice,7,17.71082,78.20758,268615
68,PO_68,Eddumailaram Bo -502285,502285,postoffice,7,17.50091,78.1234,183624
69,PO_69,Ekmamidi -501102,501102,postoffice,7,17.4044,77.91973,380780
70,PO_70,Elemala Bo -502300,502300,postoffice,7,17.47626,78.23794,175939
71,PO_71,Wadlakonda -506175,506175,postoffice,7,17.75342,79.14195,166618
72,PO_72,Erdanur -502296,502296,postoffice,7,17.61379,78.163,264913
73,PO_73,Gagillapur -500043,500043,postoffice,7,17.60635,78.3909,257220
74,PO_74,Girigetpally -501102,501102,postoffice,7,17.3589,77.88389,381445
75,PO_75,Girigetpally -501102,501102,postoffice,7,17.3589,77.88389,381443
76,PO_76,Gollapally Bo -502295,502295,postoffice,7,17.51117,78.0362,183643
77,PO_77,Gomaram Bo. -502313,502313,postoffice,7,17.74683,78.39725,170990
78,PO_78,Gomaram Bo. -502313,502313,postoffice,7,17.74683,78.39725,170692
79,PO_79,Gongloor -502293,502293,postoffice,7,17.67496,78.09642,173816
80,PO_80,Gottimukala -501102,501102,postoffice,7,17.28452,77.84952,385798
81,PO_81,Gummadidala Bo. -502313,502313,postoffice,7,17.68507,78.36832,170568
82,PO_82,Gundla Machnur -502296,502296,postoffice,7,17.65056,78.1847,294367
83,PO_83,Haridaspalli -501121,501121,postoffice,7,17.29993,77.79636,382532
84,PO_84,Hathnoora -502296,502296,postoffice,7,17.73949,78.16923,294566
85,PO_85,Icrisat So -502324,502324,postoffice,7,17.51881,78.27781,168973
86,PO_86,Ida Pashamylaram -502307,502307,postoffice,7,17.53412,78.19449,170886
87,PO_87,Indrakaran Bo -502329,502329,postoffice,7,17.52401,78.14859,175900
88,PO_88,Indresham B O -502319,502319,postoffice,7,17.56789,78.26213,176402
89,PO_89,Ismailkhanpet -502296,502296,postoffice,7,17.62752,78.15812,263782
90,PO_90,Isnapur Bo -502307,502307,postoffice,7,17.54417,78.19723,170820
91,PO_91,K Anu Kinda Bo. -502313,502313,postoffice,7,17.69926,78.41746,170621
92,PO_92,Kadcherla -501102,501102,postoffice,7,17.46079,77.90628,382766
93,PO_93,Kadcherla -501102,501102,postoffice,7,17.46077,77.90624,381100
94,PO_94,Kagazmadoor -502313,502313,postoffice,7,17.6938,78.28133,169641
95,PO_95,Kalivemula Bo -502285,502285,postoffice,7,17.54541,78.09971,183631
96,PO_96,Kandi So -502285,502285,postoffice,7,17.58087,78.10795,183669
97,PO_97,Kasala -502296,502296,postoffice,7,17.71006,78.17377,305868
98,PO_98,Kavalampet Bo -502329,502329,postoffice,7,17.57709,78.14237,175910
99,PO_99,Kesaram -501202,501202,postoffice,7,17.47499,77.83376,251300
100,PO_100,Kistareddypet B O,,postoffice,7,17.54888,78.2965,177368
101,PO_101,Kolkur Bi -502291,502291,postoffice,7,17.6917,77.98463,173253
102,PO_102,Kollur Bo,,postoffice,7,17.46273,78.23717,175928
103,PO_103,Konapur Bo -502295,502295,postoffice,7,17.48269,78.01362,183638
104,PO_104,Kondakal -501203,501203,postoffice,7,17.4691,78.24884,236125
105,PO_105,Korpole -502273,502273,postoffice,7,17.71437,78.12141,168033
106,PO_106,Kothapally -501203,501203,postoffice,7,17.40583,78.14429,232405
107,PO_107,Kotpalli So -501106,501106,postoffice,7,17.38287,77.74836,178643
108,PO_108,Kotthagadi -501102,501102,postoffice,7,17.37235,77.9041,380752
109,PO_109,Kowkuntla -501503,501503,postoffice,7,17.35265,78.03625,227492
110,PO_110,Kukonda -501121,501121,postoffice,7,17.34355,77.78518,375534
111,PO_111,Lakdaram Bo -502307,502307,postoffice,7,17.58498,78.20168,170728
112,PO_112,Madgul Chittempally -501102,501102,postoffice,7,17.27966,77.90784,382540
113,PO_113,Madhanpally -501102,501102,postoffice,7,17.41342,77.89479,381292
114,PO_114,Mahalingapuram -501203,501203,postoffice,7,17.44653,78.12122,230819
115,PO_115,Mailar Devarampalli -501102,501102,postoffice,7,17.39124,77.80846,205413
116,PO_116,Malkapur Bo -502295,502295,postoffice,7,17.58077,78.0569,183656
117,PO_117,Mallepally Bo -502295,502295,postoffice,7,17.55374,78.05382,183652
118,PO_118,Marepally Bo -502306,502306,postoffice,7,17.55845,77.97839,174953
119,PO_119,Mekavanamplly -501202,501202,postoffice,7,17.5614,77.91633,310638
120,PO_120,Minpur -502293,502293,postoffice,7,17.7266,78.00771,174259
121,PO_121,Mokhila -501203,501203,postoffice,7,17.43756,78.18332,234385
122,PO_122,Mominpet -501202,501202,postoffice,7,17.51791,77.89716,202714
123,PO_123,Moragapally -501202,501202,postoffice,7,17.48949,77.87221,262191
124,PO_124,Mothukpally -501106,501106,postoffice,7,17.43926,77.80969,383249
125,PO_125,Mubarakpur -501203,501203,postoffice,7,17.4149,78.04869,231385
126,PO_126,Munnur Somaram -501102,501102,postoffice,7,17.34721,77.82415,381661
127,PO_127,Munnur Somaram -501102,501102,postoffice,7,17.34382,77.88531,381746
128,PO_128,Muthangi So -502300,502300,postoffice,7,17.5418,78.22794,175922
129,PO_129,Nagulapally Bo -502300,502300,postoffice,7,17.46264,78.23719,175931
130,PO_130,Nallavalli B.O -502313,502313,postoffice,7,17.72131,78.3581,297587
131,PO_131,Nandigon Bo -502300,502300,postoffice,7,17.50483,78.20075,172046
132,PO_132,Nandikandi So -502306,502306,postoffice,7,17.61216,77.99207,174770
133,PO_133,Nizampur Bo -502291,502291,postoffice,7,17.67846,78.00372,173254
134,PO_134,Nuthankal B.O -501401,501401,postoffice,7,17.68198,78.44053,224854
135,PO_135,Ordinance Factory Medak So -502205,502205,postoffice,7,17.50503,78.1443,183615
136,PO_136,P.R.Pally X Road So -502295,502295,postoffice,7,17.58888,78.08418,183662
137,PO_137,Parveeda -501203,501203,postoffice,7,17.4149,78.04869,231647
138,PO_138,Pashamyalaram Bo -502307,502307,postoffice,7,17.52845,78.19028,171108
139,PO_139,Patancheru I E -502319,502319,postoffice,7,17.52249,78.2756,169012
140,PO_140,Patancheru Lsg Soa -502319,502319,postoffice,7,17.53492,78.26452,169317
141,PO_141,Patancheru Phase Ii -502319,502319,postoffice,7,17.53193,78.25859,169140
142,PO_142,Pati Bo -502300,502300,postoffice,7,17.50287,78.24053,175934
143,PO_143,Pati Ghanphur Bo -502300,502300,postoffice,7,17.49936,78.22303,175937
144,PO_144,Peddakanjarla B O,,postoffice,7,17.59723,78.23941,177409
145,PO_145,Peddapur Bo -502306,502306,postoffice,7,17.55947,78.01172,174946
146,PO_146,Peddapur Bo -502306,502306,postoffice,7,17.61321,78.02678,174924
147,PO_147,Phulusumamidi -501102,501102,postoffice,7,17.3558,77.9734,203749
148,PO_148,Pr Pally X Road So -502295,502295,postoffice,7,17.58889,78.08418,163645
149,PO_149,Pulkal -502293,502293,postoffice,7,17.73858,77.98824,174803
150,PO_150,Pulmaddhi -501102,501102,postoffice,7,17.43135,77.87604,382759
151,PO_151,R C Puram He Mdg So -502032,502032,postoffice,7,17.49491,78.30449,170498
152,PO_152,R C Puram Village So -502032,502032,postoffice,7,17.51287,78.28742,168930
153,PO_153,Rajampet Colony Tso -502001,502001,postoffice,7,17.60992,78.07772,163598
154,PO_154,Ramapur Bo -501106,501106,postoffice,7,17.40485,77.76071,383376
155,PO_155,Ramnathgudupally -501102,501102,postoffice,7,17.47357,77.90294,382763
156,PO_156,Rudraram So -502329,502329,postoffice,7,17.56287,78.16868,175914
157,PO_157,Sadasivapet So -502291,502291,postoffice,7,17.61676,77.95074,169047
158,PO_158,Sangareddy Bustand Complex Tso -502001,502001,postoffice,7,17.61554,78.08155,163666
159,PO_159,Sangareddy Collectorate Tso -502001,502001,postoffice,7,17.59423,78.08328,163626
160,PO_160,Shankarpally -501203,501203,postoffice,7,17.44972,78.12279,230577
161,PO_161,Shivampet -502273,502273,postoffice,7,17.67259,78.10448,168192
162,PO_162,Shivanagar B O -502319,502319,postoffice,7,17.61083,78.27502,176405
163,PO_163,Siddaloor -501102,501102,postoffice,7,17.35936,78.00259,203758
164,PO_164,Singapur -501203,501203,postoffice,7,17.43036,78.1212,236332
165,PO_165,Siva Reddy Pet Bo -501102,501102,postoffice,7,17.32864,77.91978,380832
166,PO_166,Srirangavaram -500043,500043,postoffice,7,17.65524,78.42474,256543
167,PO_167,Srirangavaram -500043,500043,postoffice,7,17.65526,78.42475,256464
168,PO_168,Tadlapally -502294,502294,postoffice,7,17.64146,78.08685,261716
169,PO_169,Taherkhanpet -502296,502296,postoffice,7,17.68734,78.21181,267482
170,PO_170,Tangatoor -501203,501203,postoffice,7,17.41499,78.13124,233810
171,PO_171,Tellapur B O -502032,502032,postoffice,7,17.46754,78.28293,176392
172,PO_172,Terpole Bo -502295,502295,postoffice,7,17.53741,78.02518,183646
173,PO_173,Thangadpally -501503,501503,postoffice,7,17.3739,78.05838,200292
174,PO_174,Thogarpally Bo -502306,502306,postoffice,7,17.58543,78.02455,174937
175,PO_175,Topgonda Bo -502285,502285,postoffice,7,17.50456,78.0849,183636
176,PO_176,Veltoor Bo -502291,502291,postoffice,7,17.64828,78.00172,173255
177,PO_177,Vendikole -502273,502273,postoffice,7,17.66836,78.13492,168301
178,PO_178,Venkatpur Bo -502291,502291,postoffice,7,17.64721,77.96405,172460
179,PO_179,Vikarabad -501101,501101,postoffice,7,17.33783,77.90787,167400
180,PO_180,Vootla B O -502319,502319,postoffice,7,17.6331,78.30871,176406
181,PO_181,Waddepally -502296,502296,postoffice,7,17.67005,78.2426,266814
182,PO_182,Yellakonda -501203,501203,postoffice,7,17.45185,78.02799,231192
183,PO_183,Yellakonda -501203,501203,postoffice,7,17.45185,78.02799,231164
184,PO_184,Yelwarthy -501203,501203,postoffice,7,17.45061,78.14458,233995
185,PO_185,Yenkepally -501106,501106,postoffice,7,17.42318,77.76953,243905
186,PO_186,Yenkepally Bo -501106,501106,postoffice,7,17.42255,77.77255,383246
187,PO_187,Nimboliadda So -50002702,500027,postoffice,7,17.38402,78.49433,273369
188,PO_188,5015003 -501503,501500,postoffice,7,17.3369,78.14328,200222
189,PO_189,A.D.M. Buildings -500007,500007,postoffice,7,17.41347,78.52505,163380
190,PO_190,A.G.S Office -500004,500004,postoffice,7,17.40666,78.46732,166172
191,PO_191,Ag College -500030,500030,postoffice,7,17.32303,78.41724,179219
192,PO_192,Ags Staff Qrts -500045,500045,postoffice,7,17.44798,78.42893,163282
193,PO_193,Aliabad -500101,500101,postoffice,7,17.62239,78.59961,226982
194,PO_194,Alwal Po -500010,500010,postoffice,7,17.50412,78.5107,167338
195,PO_195,Ambernagarbo -500044,500044,postoffice,7,17.41154,78.51593,271305
196,PO_196,Amberpet -500023,500023,postoffice,7,17.39117,78.51637,173339
197,PO_197,Amberpet So -500013,500013,postoffice,7,17.39228,78.51943,187219
198,PO_198,Amdapur -501504,501504,postoffice,7,17.27785,78.29254,227651
199,PO_199,Anand Nagar P O -500004,500004,postoffice,7,17.41039,78.45465,170969
200,PO_200,Anandbagh So -500047,500047,postoffice,7,17.45809,78.53804,167447
201,PO_201,Anantharam -500101,500101,postoffice,7,17.68291,78.66337,225307
202,PO_202,Andhra Mahila Sabha -500044,500044,postoffice,7,17.40228,78.50949,177894
203,PO_203,Ankireddy Pally -501301,501301,postoffice,7,17.56066,78.68336,231797
204,PO_204,Ankushapur -501301,501301,postoffice,7,17.4485,78.72657,230145
205,PO_205,Aoc Records Po -500015,500015,postoffice,7,17.47135,78.51821,167429
206,PO_206,Aphb Colony -500040,500040,postoffice,7,17.46041,78.56433,179279
207,PO_207,Ashoknagar Ndso -500020,500020,postoffice,7,17.40551,78.49079,167634
208,PO_208,Attapur B.O. -500048,500048,postoffice,7,17.36444,78.43211,263764
209,PO_209,Aziznagar -500075,500075,postoffice,7,17.33517,78.32764,169375
210,PO_210,Bachupally -500090,500090,postoffice,7,17.53869,78.36462,231101
211,PO_211,Bahadurpally -500043,500043,postoffice,7,17.55863,78.44056,258359
212,PO_212,Bahadurpura -500064,500064,postoffice,7,17.35826,78.45692,175342
213,PO_213,Balanagar Township -500037,500037,postoffice,7,17.48234,78.4499,167566
214,PO_214,Banjara Hills -500034,500034,postoffice,7,17.42235,78.44777,170472
215,PO_215,Banjara Hills -500034,500034,postoffice,7,17.42235,78.44777,170152
216,PO_216,Bazarghat Po -500004,500004,postoffice,7,17.39475,78.46597,177456
217,PO_217,Begumpet -508105,508105,postoffice,7,17.70701,78.88814,192245
218,PO_218,Begumpet -500016,500016,postoffice,7,17.43944,78.45782,167458
219,PO_219,Bhailampur,,postoffice,7,17.73959,78.67782,272098
220,PO_220,Bharathnagar Colony -500018,500018,postoffice,7,17.47429,78.42409,163825
221,PO_221,Bhasker Nagar -500075,500075,postoffice,7,17.33235,78.29846,169487
222,PO_222,Bits Hyderabad Campus -500078,500078,postoffice,7,17.54233,78.57593,200083
223,PO_223,Boduppal So -500092,500092,postoffice,7,17.42016,78.58461,188891
224,PO_224,Bogaram -501301,501301,postoffice,7,17.50743,78.68652,230408
225,PO_225,Bolarum -500010,500010,postoffice,7,17.50522,78.51858,166338
226,PO_226,Bolarum Bazar -500010,500010,postoffice,7,17.51757,78.51826,168456
227,PO_227,Bommalaramaram -508126,508126,postoffice,7,17.56284,78.74077,196097
228,PO_228,Bommaraspet -500078,500078,postoffice,7,17.59959,78.60944,197401
229,PO_229,Bowrampet -500043,500043,postoffice,7,17.56169,78.39872,257755
230,PO_230,Cbit So -500075,500075,postoffice,7,17.39351,78.31964,173158
231,PO_231,Chaitanyapuri Colony So -500060,500060,postoffice,7,17.37345,78.53528,172563
232,PO_232,Chandanagar -500050,500050,postoffice,7,17.4947,78.32526,172116
233,PO_233,Cheelasagar -502279,502279,postoffice,7,17.68896,78.63561,272114
234,PO_234,Cheeryal -501301,501301,postoffice,7,17.51431,78.62815,227286
235,PO_235,Cherlapally -501301,501301,postoffice,7,17.46409,78.61086,226524
236,PO_236,Chevella -501503,501503,postoffice,7,17.31021,78.1372,178189
237,PO_237,Chikatimamidi -508117,508117,postoffice,7,17.59924,78.74973,254588
238,PO_238,Chinna Managalaram -501504,501504,postoffice,7,17.41394,78.23628,178507
239,PO_239,Chinna Nangalaram -501504,501504,postoffice,7,17.41394,78.23628,178554
240,PO_240,Cie Balanagar -500037,500037,postoffice,7,17.46624,78.44641,167413
241,PO_241,Cmr B.O -501401,501401,postoffice,7,17.63665,78.48547,229658
242,PO_242,Crp Camp -500005,500005,postoffice,7,17.31654,78.47816,178588
243,PO_243,Crp Camp -500005,500005,postoffice,7,17.31668,78.47819,178469
244,PO_244,Crpf -500078,500078,postoffice,7,17.53874,78.56332,200218
245,PO_245,Cuc So -500046,500046,postoffice,7,17.45539,78.32571,163722
246,PO_246,Cyberabad -500081,500081,postoffice,7,17.4418,78.39097,164176
247,PO_247,Dabirpur B.O -501401,501401,postoffice,7,17.66738,78.46989,224678
248,PO_248,Dak Sadan -500001,500001,postoffice,7,17.38789,78.47587,160381
249,PO_249,Damarakunta B.O. -502281,502281,postoffice,7,17.70619,78.75252,193287
250,PO_250,Damargidda -501503,501503,postoffice,7,17.30683,78.10653,227798
251,PO_251,Darga Hussain Shaw Talk With It For -500008,500008,postoffice,7,17.41095,78.38992,170997
252,PO_252,Darush-shifa S.O. -500024,500024,postoffice,7,17.3713,78.48224,177579
253,PO_253,Dattayipalli -508115,508115,postoffice,7,17.65829,78.88528,198806
254,PO_254,Devaryamjal -500078,500078,postoffice,7,17.56635,78.52264,197140
255,PO_255,Dilsukh Nagar Colony So -500059,500059,postoffice,7,17.36863,78.52971,172174
256,PO_256,Donbosconagar -500086,500086,postoffice,7,17.34878,78.37696,179513
257,PO_257,Dr A S Rao Nagar -500062,500062,postoffice,7,17.4784,78.55936,172092
258,PO_258,Dundigal -500043,500043,postoffice,7,17.60709,78.41507,256966
259,PO_259,Ecil -500062,500062,postoffice,7,17.4659,78.57076,173268
260,PO_260,Eme Records -500015,500015,postoffice,7,17.48673,78.51131,169906
261,PO_261,Erragadda -500018,500018,postoffice,7,17.45389,78.43231,163712
262,PO_262,Falaknuma -500053,500053,postoffice,7,17.33676,78.46897,179816
263,PO_263,Fathedarwaja -500053,500053,postoffice,7,17.35462,78.46472,179899
264,PO_264,Fathenagar -500018,500018,postoffice,7,17.45814,78.45143,163545
265,PO_265,Fathenagar -500018,500018,postoffice,7,17.4386,78.45863,163514
266,PO_266,Fathenagar -500018,500018,postoffice,7,17.45813,78.45142,163525
267,PO_267,Film Nagar -500096,500096,postoffice,7,17.41605,78.4104,163951
268,PO_268,G C Rastha S.O -500020,500020,postoffice,7,17.41044,78.49885,163876
269,PO_269,Gachibowli -500032,500032,postoffice,7,17.43908,78.35856,169844
270,PO_270,Gaganmahal Sub Postal Office -500029,500029,postoffice,7,17.4107,78.47837,163811
271,PO_271,Gaganpahad B O -500052,500052,postoffice,7,17.29677,78.41886,279536
272,PO_272,Gandhamalla -508115,508115,postoffice,7,17.7282,78.85518,198800
273,PO_273,Gandhi Nagar S.O -500080,500080,postoffice,7,17.41917,78.49135,162177
274,PO_274,Gandhibhavan -500001,500001,postoffice,7,17.38811,78.47029,188593
275,PO_275,Gandhibhawan Po -500001,500001,postoffice,7,17.38839,78.47089,177455
276,PO_276,Gandipet -500075,500075,postoffice,7,17.3847,78.32017,173155
277,PO_277,Gayatrinagar S.O. -500097,500097,postoffice,7,17.33426,78.53253,182927
278,PO_278,Girmapur B.O -501401,501401,postoffice,7,17.63113,78.45534,225958
279,PO_279,Golconda -500008,500008,postoffice,7,17.38231,78.4072,164032
280,PO_280,Gsi Bandlaguda -500068,500068,postoffice,7,17.36356,78.58316,215300
281,PO_281,Gundla Pochampally -500101,500101,postoffice,7,17.56861,78.4791,192284
282,PO_282,H.A.L -500042,500042,postoffice,7,17.46835,78.45067,167356
283,PO_283,H.M.T Township -500054,500054,postoffice,7,17.49702,78.45334,167748
284,PO_284,Haiglines -500010,500010,postoffice,7,17.52695,78.52452,167313
285,PO_285,Hakimpet -500014,500014,postoffice,7,17.539,78.51926,171553
286,PO_286,Hasan Nagar B O -500052,500052,postoffice,7,17.33659,78.44365,278585
287,PO_287,Hazipur -508126,508126,postoffice,7,17.56087,78.7698,196082
288,PO_288,High Court P.O. -500066,500066,postoffice,7,17.36844,78.47064,163594
289,PO_289,Himayatnagar -500075,500075,postoffice,7,17.34289,78.30762,169600
290,PO_290,Himayathnagar Sub Post Office -500029,500029,postoffice,7,17.40243,78.487,163745
291,PO_291,Himayatnagar -500075,500075,postoffice,7,17.34289,78.30762,169584
292,PO_292,Himmatnagar S.O. -500025,500025,postoffice,7,17.43544,78.50562,168074
293,PO_293,Hindustan Cables Limited -500051,500051,postoffice,7,17.45354,78.58357,189679
294,PO_294,Huda Residential Complex -500035,500035,postoffice,7,17.35258,78.53566,180045
295,PO_295,Humayun Nagar -500028,500028,postoffice,7,17.3991,78.44855,165024
296,PO_296,Hyderabad Gpo -500001,500001,postoffice,7,17.38826,78.47658,162246
297,PO_297,Hyderabad Jubilee H.O. -500002,500002,postoffice,7,17.36842,78.47746,164319
298,PO_298,Hyderguda -500048,500048,postoffice,7,17.36184,78.42731,174450
299,PO_299,Hydresha Kote -500091,500091,postoffice,7,17.36822,78.39322,169076
300,PO_300,I B Lines -500031,500031,postoffice,7,17.37776,78.39359,168950
301,PO_301,I E Nacharam -500076,500076,postoffice,7,17.43177,78.55391,190420
302,PO_302,I.E.Moulali So -500040,500040,postoffice,7,17.45364,78.55232,170645
303,PO_303,Ibrahimpur -508115,508115,postoffice,7,17.68439,78.87293,198804
304,PO_304,Ida Jeedimetla -500055,500055,postoffice,7,17.52061,78.44467,167837
305,PO_305,Iict Post Office -500007,500007,postoffice,7,17.42241,78.53837,163416
306,PO_306,J J Nagar Colony So -500087,500087,postoffice,7,17.49836,78.53466,173001
307,PO_307,Jaggamguda -500101,500101,postoffice,7,17.6242,78.62591,228073
308,PO_308,Jai Jawan Colony -500062,500062,postoffice,7,17.48935,78.57272,179584
309,PO_309,Jainapalli -508126,508126,postoffice,7,17.50419,78.79529,171491
310,PO_310,Jalalpur -508126,508126,postoffice,7,17.59709,78.71477,196110
311,PO_311,Jama-i-osmania -500007,500007,postoffice,7,17.42056,78.5254,163332
312,PO_312,Jameelapet -508126,508126,postoffice,7,17.49518,78.72486,196045
313,PO_313,Jangampalli -508115,508115,postoffice,7,17.61291,78.87134,198816
314,PO_314,Janwada,,postoffice,7,17.40071,78.25989,173168
315,PO_315,Jawahar Nagar -500087,500087,postoffice,7,17.51231,78.55794,246957
316,PO_316,Jntu Kukatpally -500085,500085,postoffice,7,17.49325,78.39256,173123
317,PO_317,Jubilee Hills -500033,500033,postoffice,7,17.42839,78.41541,164152
318,PO_318,Kadlakal -502336,502336,postoffice,7,17.7139,78.48182,271866
319,PO_319,Kakatiya Nagar -500008,500008,postoffice,7,17.39272,78.42496,168681
320,PO_320,Kakatiya Nagar -500008,500008,postoffice,7,17.39282,78.42488,173144
321,PO_321,Kanakamamidi -501504,501504,postoffice,7,17.30467,78.24744,227404
322,PO_322,Karwan Sahu Po -500006,500006,postoffice,7,17.36931,78.45728,174517
323,PO_323,Karwansahu -500006,500006,postoffice,7,17.36929,78.45717,172982
324,PO_324,Kattedan Ie -500076,500076,postoffice,7,17.31596,78.43467,178886
325,PO_325,Kchavanisingaram -500088,500088,postoffice,7,17.38797,78.63249,171702
326,PO_326,Kesara -501301,501301,postoffice,7,17.52395,78.66573,226834
327,PO_327,Kesara Gutta -501301,501301,postoffice,7,17.53358,78.6899,232132
328,PO_328,Kesara Gutta -501301,501301,postoffice,7,17.53358,78.6899,231990
329,PO_329,Keshogiris -500005,500005,postoffice,7,17.31648,78.46631,178782
330,PO_330,Khairatabad -500004,500004,postoffice,7,17.40702,78.46243,164571
331,PO_331,Khairatabad Homes -500004,500004,postoffice,7,17.40699,78.46243,166035
332,PO_332,Kingsway S.O. -500003,500003,postoffice,7,17.43396,78.49335,168412
333,PO_333,Kishan Bagh B.O. -500064,500064,postoffice,7,17.35676,78.44435,263565
334,PO_334,Kismathpur B O -500030,500030,postoffice,7,17.3344,78.39375,277328
335,PO_335,Kokapet,,postoffice,7,17.39554,78.33461,173171
336,PO_336,Kokkonda -502336,502336,postoffice,7,17.72198,78.54509,271878
337,PO_337,Koltur -500101,500101,postoffice,7,17.64158,78.64213,224971
338,PO_338,Komdapur -500084,500084,postoffice,7,17.4655,78.36216,170529
339,PO_339,Kompalli So -500100,500100,postoffice,7,17.5446,78.48887,177771
340,PO_340,Kondamadugu -508126,508126,postoffice,7,17.49106,78.76907,196053
341,PO_341,Korremal -500088,500088,postoffice,7,17.40477,78.66784,171443
342,PO_342,Kothaguda -500084,500084,postoffice,7,17.46491,78.36641,170554
343,PO_343,Kowkoor -500010,500010,postoffice,7,17.52601,78.53294,246952
344,PO_344,Kphb Colony -500085,500085,postoffice,7,17.48904,78.39563,168754
345,PO_345,Kuchavaram -502336,502336,postoffice,7,17.73095,78.46623,271852
346,PO_346,Kukatpally -500072,500072,postoffice,7,17.48386,78.4117,169136
347,PO_347,Kulsumpura Po -500006,500006,postoffice,7,17.37573,78.44437,174374
348,PO_348,Kushaiguda -500062,500062,postoffice,7,17.4793,78.57119,185107
349,PO_349,Kyasaram -500101,500101,postoffice,7,17.63412,78.65574,228032
350,PO_350,Lalgadi Malakpet -500101,500101,postoffice,7,17.63088,78.60954,228240
351,PO_351,Lallaguda -500017,500017,postoffice,7,17.43535,78.52888,172807
352,PO_352,Lallapet -500017,500017,postoffice,7,17.43434,78.54025,166547
353,PO_353,Langarhouse -500008,500008,postoffice,7,17.37589,78.42017,168865
354,PO_354,Lic Division Sub Post Office -500063,500063,postoffice,7,17.40729,78.47113,163863
355,PO_355,Lingampalli -500019,500019,postoffice,7,17.47979,78.31448,165136
356,PO_356,M.G.Road S.O. -500003,500003,postoffice,7,17.43129,78.49102,166132
357,PO_357,Madhapur -500081,500081,postoffice,7,17.44448,78.39252,170658
358,PO_358,Madhapuram -508117,508117,postoffice,7,17.63251,78.77345,196139
359,PO_359,Maharajpet -501203,501203,postoffice,7,17.41894,78.23369,233436
360,PO_360,Malakpet Colony So -500036,500036,postoffice,7,17.37887,78.51632,174723
361,PO_361,Malkajgiri -500047,500047,postoffice,7,17.44843,78.53655,166091
362,PO_362,Malkapur -501503,501503,postoffice,7,17.32484,78.1724,226299
363,PO_363,Malkapur -501503,501503,postoffice,7,17.32483,78.1724,226163
364,PO_364,Malkapur -501503,501503,postoffice,7,17.32484,78.1724,226261
365,PO_365,Mallapa Bo -500076,500076,postoffice,7,17.44339,78.5691,270260
366,PO_366,Mamidial,,postoffice,7,17.74336,78.69597,272095
367,PO_367,Manchirevula -500089,500089,postoffice,7,17.37792,78.35411,169678
368,PO_368,Mangalhat Po -500006,500006,postoffice,7,17.37667,78.46069,175099
369,PO_369,Manovikasnagar -500009,500009,postoffice,7,17.46932,78.48975,166280
370,PO_370,Mansoorabad -500068,500068,postoffice,7,17.35186,78.56249,301925
371,PO_371,Manuu So -500032,500032,postoffice,7,17.42908,78.36208,164075
372,PO_372,Maryal -508117,508117,postoffice,7,17.56757,78.80965,223071
373,PO_373,Matrusrinagar -500049,500049,postoffice,7,17.49431,78.36812,184072
374,PO_374,Medchal -501401,501401,postoffice,7,17.63497,78.48322,185896
375,PO_375,Medchal -501401,501401,postoffice,7,17.63496,78.48319,224532
376,PO_376,Medipalli -500098,500098,postoffice,7,17.40966,78.60366,178529
377,PO_377,Medipally -501203,501203,postoffice,7,17.41348,78.28592,232749
378,PO_378,Mig Colony S O -502032,502032,postoffice,7,17.482,78.30236,170876
379,PO_379,Mig Colony S O -502032,502032,postoffice,7,17.482,78.30236,176396
380,PO_380,Moazzampura Po -500001,500001,postoffice,7,17.39209,78.45746,167934
381,PO_381,Moghalpura -500002,500002,postoffice,7,17.35786,78.47665,177604
382,PO_382,Moinabad -501504,501504,postoffice,7,17.3265,78.274,177685
383,PO_383,Mudimyal -501503,501503,postoffice,7,17.33432,78.20096,226479
384,PO_384,Mudimyal -501503,501503,postoffice,7,17.33432,78.20096,227026
385,PO_385,Muduchintalpally -500101,500101,postoffice,7,17.65186,78.68871,226245
386,PO_386,Mulugu -502279,502279,postoffice,7,17.74251,78.62965,272131
387,PO_387,Muradnagar -500028,500028,postoffice,7,17.38552,78.45011,174278
388,PO_388,Musheerabad Dso -500020,500020,postoffice,7,17.41807,78.49937,167853
389,PO_389,Musheerabad Ndso -500020,500020,postoffice,7,17.404,78.49563,167703
390,PO_390,Nagaram S.O -500083,500083,postoffice,7,17.48696,78.60256,179730
391,PO_391,Naginenipalli -508126,508126,postoffice,7,17.52659,78.77182,196073
392,PO_392,Nallakunta So -500044,500044,postoffice,7,17.3982,78.50514,174147
393,PO_393,Nampally Sorting Office Hyderabad -500001,500001,postoffice,7,17.38753,78.47646,163278
394,PO_394,Nanakramguda -500008,500008,postoffice,7,17.41932,78.35178,171351
395,PO_395,Narayanaguda Sub Post Office -500029,500029,postoffice,7,17.39576,78.48607,163726
396,PO_396,Narsampally,,postoffice,7,17.71128,78.6659,272109
397,PO_397,Narsingi -500089,500089,postoffice,7,17.38831,78.35462,169728
398,PO_398,Nehrunagar -500026,500026,postoffice,7,17.44842,78.50791,170011
399,PO_399,Neredmet So -500056,500056,postoffice,7,17.46871,78.54803,167392
400,PO_400,New Mla Quarters -500063,500063,postoffice,7,17.40435,78.47331,163911
401,PO_401,New Nallakunta So -500044,500044,postoffice,7,17.39755,78.51017,174232
402,PO_402,Ngri -500007,500007,postoffice,7,17.4084,78.55361,170626
403,PO_403,Nisa Hakimpet -500078,500078,postoffice,7,17.532,78.51565,178382
404,PO_404,Nizampet -500090,500090,postoffice,7,17.51745,78.38246,178595
405,PO_405,O/o Post Master General Huderabad Region -500001,500001,postoffice,7,17.38774,78.47589,162138
406,PO_406,Oils Umpire Is Going -500006,500006,postoffice,7,17.37577,78.44438,172806
407,PO_407,Old Malakpetso -50003601,500036,postoffice,7,17.38346,78.5053,268513
408,PO_408,Osman Nagar So -500036,500036,postoffice,7,17.37143,78.50117,172944
409,PO_409,P And T Colony -500060,500060,postoffice,7,17.36402,78.5255,171805
410,PO_410,Padmaraonagar -500025,500025,postoffice,7,17.42285,78.50607,167914
411,PO_411,Pallipahad -508117,508117,postoffice,7,17.6036,78.81655,196148
412,PO_412,Parishram Bhawan -500004,500004,postoffice,7,17.40152,78.47503,168189
413,PO_413,Parishram Bhawan Sub Post Office -500004,500004,postoffice,7,17.40155,78.47518,163940
414,PO_414,Parishrambhawan -500004,500004,postoffice,7,17.40167,78.47508,168227
415,PO_415,Pedda Laxmapur -500101,500101,postoffice,7,17.66336,78.70022,225797
416,PO_416,Pedda Mangalaram -501504,501504,postoffice,7,17.33709,78.25818,177939
417,PO_417,Peerlapally B.O. -502281,502281,postoffice,7,17.73914,78.80976,193292
418,PO_418,Peers Adi Gud A Bo -500039,500039,postoffice,7,17.40644,78.59155,270796
419,PO_419,Picket -500009,500009,postoffice,7,17.4539,78.49974,166201
420,PO_420,Picket -500009,500009,postoffice,7,17.45393,78.49967,166148
421,PO_421,Ponnal -500078,500078,postoffice,7,17.60204,78.62864,197520
422,PO_422,Postal Store Depot . Hyderabad -500025,500025,postoffice,7,17.42279,78.50606,167955
423,PO_423,Pragathinagar -500090,500090,postoffice,7,17.51742,78.39735,232044
424,PO_424,Prakashamnagar -500016,500016,postoffice,7,17.44141,78.46917,168848
425,PO_425,Proddatur -501203,501203,postoffice,7,17.41894,78.23369,233645
426,PO_426,Pudur B.O -501401,501401,postoffice,7,17.62,78.52725,230506
427,PO_427,Putlibouli So -500095,500095,postoffice,7,17.38693,78.48788,162324
428,PO_428,Putlibowli Sub Post Office -500095,500095,postoffice,7,17.38695,78.48775,163997
429,PO_429,Pyaravaram -508117,508117,postoffice,7,17.60971,78.72639,196126
430,PO_430,R.R District Courts So -500074,500074,postoffice,7,17.3533,78.54756,193274
431,PO_431,Rail Nilayam -500025,500025,postoffice,7,17.43933,78.50868,172413
432,PO_432,Raj Bhavan Po -500041,500041,postoffice,7,17.4185,78.46147,169015
433,PO_433,Rajapet -508105,508105,postoffice,7,17.73261,78.92025,192127
434,PO_434,Rajbollaram B.O -501401,501401,postoffice,7,17.63814,78.5358,230799
435,PO_435,Rajendranagar -500030,500030,postoffice,7,17.3225,78.40009,179684
436,PO_436,Rajiv Gruha Kalpa -500088,500088,postoffice,7,17.43029,78.67006,171292
437,PO_437,Rama Krishnapuram -500102,500102,postoffice,7,17.36725,78.55138,166763
438,PO_438,Ramakrishna Mutt Sub Post Office -500029,500029,postoffice,7,17.41131,78.4825,163785
439,PO_439,Ramakrishnapuram So -500056,500056,postoffice,7,17.47169,78.54011,167417
440,PO_440,Ramalingampalli -508126,508126,postoffice,7,17.58005,78.69774,196103
441,PO_441,Rampally -501301,501301,postoffice,7,17.469,78.64439,226394
442,PO_442,Rampally Dayara -501301,501301,postoffice,7,17.50041,78.65883,226698
443,PO_443,Ranga Reddy Nagar -500037,500037,postoffice,7,17.49479,78.4267,178190
444,PO_444,Ravalkole B.O -501401,501401,postoffice,7,17.65944,78.52415,230269
445,PO_445,Renikunta -508105,508105,postoffice,7,17.71545,78.90817,167922
446,PO_446,Rustapur -508117,508117,postoffice,7,17.58304,78.83874,196154
447,PO_447,Sahifa -500024,500024,postoffice,7,17.37696,78.49483,163933
448,PO_448,Saidabad Colony So -500059,500059,postoffice,7,17.36148,78.5131,171135
449,PO_449,Sainikpuri -500094,500094,postoffice,7,17.48906,78.30862,218622
450,PO_450,Sainikpuri -500094,500094,postoffice,7,17.49023,78.54131,169323
451,PO_451,Sainikpuri -500094,500094,postoffice,7,17.49023,78.54131,169306
452,PO_452,Sakkubai Nagar -500008,500008,postoffice,7,17.40604,78.39596,170895
453,PO_453,Sanathnagar Colony -500018,500018,postoffice,7,17.45144,78.44539,165470
454,PO_454,Sanathnagar Ie So -500018,500018,postoffice,7,17.45895,78.44317,163340
455,PO_455,Annasagar Bo -509382,509382,postoffice,7,16.76016,78.11155,171129
456,PO_456,Sanathnagarie -500018,500018,postoffice,7,17.47442,78.44662,163385
457,PO_457,Sanjeev Reddy Nagar P O -500038,500038,postoffice,7,17.43776,78.44377,171343
458,PO_458,Aithole -509209,509209,postoffice,7,16.61469,78.34727,299618
459,PO_459,Sanskruthi Town Ship -500088,500088,postoffice,7,17.44163,78.65073,171089
460,PO_460,Aithole -509209,509209,postoffice,7,16.61478,78.34724,296472
461,PO_461,Saroor Nagar -500035,500035,postoffice,7,17.36612,78.53897,166162
462,PO_462,Aithole -509209,509209,postoffice,7,16.61478,78.34724,296505
463,PO_463,Sbh So -500001,500001,postoffice,7,17.39443,78.47593,168091
464,PO_464,Secunderabad Hpo -500003,500003,postoffice,7,17.43932,78.49431,386584
465,PO_465,Seetarampet Po -500001,500001,postoffice,7,17.38173,78.46519,177454
466,PO_466,Seminar Bo -500013,500013,postoffice,7,17.39356,78.54449,269814
467,PO_467,Shahalibanda -500065,500065,postoffice,7,17.35025,78.47241,179942
468,PO_468,Shamirpet So -500101,500101,postoffice,7,17.59409,78.57491,169656
469,PO_469,Shanthi Hagar -500028,500028,postoffice,7,17.40123,78.45564,167493
470,PO_470,Shanti Nagar Po -500028,500028,postoffice,7,17.40135,78.4557,167779
471,PO_471,Appajipally -509406,509406,postoffice,7,16.64262,78.227,245793
472,PO_472,Shivrampally B O -500052,500052,postoffice,7,17.327,78.42811,279082
473,PO_473,Sitaphalmandi Post Office -500061,500061,postoffice,7,17.41847,78.51959,163521
474,PO_474,Snehapuri Colony -500076,500076,postoffice,7,17.42299,78.54578,190582
475,PO_475,Avancha Bo -509302,509302,postoffice,7,16.7118,78.24983,264636
476,PO_476,Somajiguda P O -500082,500082,postoffice,7,17.41928,78.45629,171109
477,PO_477,Ayyawripally -509357,509357,postoffice,7,16.71587,78.28745,283399
478,PO_478,Sr Nagar -500038,500038,postoffice,7,17.4383,78.44677,163322
479,PO_479,Ballanpally -509215,509215,postoffice,7,16.62344,78.31045,252774
480,PO_480,Sr Nagar So -500038,500038,postoffice,7,17.43731,78.44359,163381
481,PO_481,Srinagar Colony -500073,500073,postoffice,7,17.4326,78.44689,163763
482,PO_482,Sripuram Colony Bo -500036,500036,postoffice,7,17.37649,78.51382,273036
483,PO_483,Bavajipally -509406,509406,postoffice,7,16.66677,78.19302,253000
484,PO_484,Suchitra Junction -500067,500067,postoffice,7,17.50902,78.47533,169263
485,PO_485,Bhalanpally -509215,509215,postoffice,7,16.62342,78.31042,252718
486,PO_486,Survey Of India -500039,500039,postoffice,7,17.40491,78.55493,201842
487,PO_487,Svpnpa -500052,500052,postoffice,7,17.32806,78.43594,179088
488,PO_488,Swarjya Nagar -500018,500018,postoffice,7,17.45456,78.42298,163300
489,PO_489,Boinpally -509357,509357,postoffice,7,16.73744,78.34613,262170
490,PO_490,Tadban -500064,500064,postoffice,7,17.34649,78.45359,263334
491,PO_491,Tarnaka -500007,500007,postoffice,7,17.42443,78.53455,166543
492,PO_492,Buddasamudramboa/wtownjadcherlaso -509302,509302,postoffice,7,16.69368,78.27792,264688
493,PO_493,Thimaipally -501301,501301,postoffice,7,17.54594,78.61707,227175
494,PO_494,Thumkunta -500078,500078,postoffice,7,17.56485,78.55556,200458
495,PO_495,Chilver,,postoffice,7,16.72824,78.25916,284222
496,PO_496,Thunki -502336,502336,postoffice,7,17.7585,78.57292,271894
497,PO_497,Tolichowki -500008,500008,postoffice,7,17.39909,78.41212,170788
498,PO_498,Trimulgherry H.O -500015,500015,postoffice,7,17.47868,78.50972,167359
499,PO_499,Tunki Bollaram,,postoffice,7,17.72932,78.59045,272123
500,PO_500,Turkapalli -508115,508115,postoffice,7,17.65295,78.82834,174661
501,PO_501,Turkapallyyadaram -500101,500101,postoffice,7,17.67238,78.59385,224603
502,PO_502,Uddamarri -500078,500078,postoffice,7,17.61712,78.67838,197663
503,PO_503,Uppal S.O -500039,500039,postoffice,7,17.40314,78.56162,175472
504,PO_504,Uppuguda -500053,500053,postoffice,7,17.34338,78.47794,180117
505,PO_505,Urella -501503,501503,postoffice,7,17.35496,78.13138,227867
506,PO_506,Vaishali Nagar -500079,500079,postoffice,7,17.34576,78.52033,170884
507,PO_507,Vaishalinagar -500079,500079,postoffice,7,17.34594,78.52036,162617
508,PO_508,Vardharajupuram B.O. -502281,502281,postoffice,7,17.73564,78.76605,193262
509,PO_509,Donur -509357,509357,postoffice,7,16.78977,78.26564,251063
510,PO_510,Vasalamari -508115,508115,postoffice,7,17.67168,78.81184,174944
511,PO_511,Donur,,postoffice,7,16.78971,78.26575,306596
512,PO_512,Veerareddipalli -508115,508115,postoffice,7,17.71352,78.82899,198803
513,PO_513,Vengalrao Nagar -500038,500038,postoffice,7,17.44395,78.44028,164989
514,PO_514,Edurepally -509406,509406,postoffice,7,16.66192,78.21742,177769
515,PO_515,Venkatapuram -508115,508115,postoffice,7,17.64383,78.86782,198808
516,PO_516,Gangapur -509302,509302,postoffice,7,16.7724,78.19209,201723
517,PO_517,Vidhansabha -500004,500004,postoffice,7,17.40155,78.46935,167436
518,PO_518,Vidyanagar So -500044,500044,postoffice,7,17.40766,78.51089,175481
519,PO_519,Gattuippalapally -509320,509320,postoffice,7,16.80036,78.44221,254327
520,PO_520,Vijaya Nagar Colony Po -500057,500057,postoffice,7,17.39454,78.45193,168557
521,PO_521,Vikasnagar -500093,500093,postoffice,7,17.4755,78.45873,167323
522,PO_522,Gollapally -509301,509301,postoffice,7,16.81632,78.1666,255922
523,PO_523,Vivekananda Nagar Colony -500072,500072,postoffice,7,17.49349,78.41018,168991
524,PO_524,Wadaparti -508117,508117,postoffice,7,17.55933,78.83149,223075
525,PO_525,Wattinagulapally By,,postoffice,7,17.41758,78.29258,173165
526,PO_526,Yadgarpally -501301,501301,postoffice,7,17.54597,78.63243,227043
527,PO_527,Gudiganipalli,,postoffice,7,16.67335,78.3368,298705
528,PO_528,Yakutpura S.O. -500023,500023,postoffice,7,17.36231,78.48645,177588
529,PO_529,Yousufguda -500045,500045,postoffice,7,17.43773,78.42776,163261
530,PO_530,Gummakonda -509406,509406,postoffice,7,16.64775,78.19997,245430
531,PO_531,Zamistanpur -500020,500020,postoffice,7,17.41382,78.50524,167797
532,PO_532,Zindathilasmath. Bo -500013,500013,postoffice,7,17.38778,78.51072,269073
533,PO_533,506201 -506201,506201,postoffice,7,17.62016,79.1864,168465
534,PO_534,506221 -506221,506221,postoffice,7,17.75268,79.03535,166972
535,PO_535,Ippalapally -509406,509406,postoffice,7,16.68547,78.20238,177857
536,PO_536,Alir -508101,508101,postoffice,7,17.64439,79.04748,178900
537,PO_537,Ambala -508277,508277,postoffice,7,17.49042,79.24213,196371
538,PO_538,Anajipur -508285,508285,postoffice,7,17.45941,78.90372,183999
539,PO_539,Anantaram -508117,508117,postoffice,7,17.51358,78.84546,223068
540,PO_540,Anantaram -508101,508101,postoffice,7,17.56204,79.18189,179007
541,PO_541,Arroor -508112,508112,postoffice,7,17.39112,79.09141,180777
542,PO_542,Atmakur -508111,508111,postoffice,7,17.47394,79.14146,202186
543,PO_543,Bandaravirala -501505,501505,postoffice,7,17.38668,78.71677,265887
544,PO_544,Kodparthy -509406,509406,postoffice,7,16.63082,78.22865,246473
545,PO_545,Baswapur -508117,508117,postoffice,7,17.56487,78.89573,198817
546,PO_546,Batasingaram -501512,501512,postoffice,7,17.30084,78.72705,266998
547,PO_547,Bhattuguda -508126,508126,postoffice,7,17.41996,78.83805,173111
548,PO_548,Bhongir -508116,508116,postoffice,7,17.52152,78.89436,176079
549,PO_549,Bhongir Gunj -508117,508117,postoffice,7,17.51354,78.88332,174650
550,PO_550,Bibinagar -508126,508126,postoffice,7,17.4716,78.79489,170810
551,PO_551,Kothapally B.O -509357,509357,postoffice,7,16.75428,78.2293,246508
552,PO_552,Bollepalli -508285,508285,postoffice,7,17.40855,78.92728,183747
553,PO_553,Kothur,,postoffice,7,16.6954,78.31304,297931
554,PO_554,Bollepally -508285,508285,postoffice,7,17.40856,78.92726,183780
555,PO_555,Bondugula -508105,508105,postoffice,7,17.76953,78.96613,192067
556,PO_556,Brahmanapalli -508126,508126,postoffice,7,17.43841,78.81788,173109
557,PO_557,Chada -508111,508111,postoffice,7,17.49922,79.07424,187880
558,PO_558,Challoor -508105,508105,postoffice,7,17.6831,78.92603,192253
559,PO_559,Chandepalli -508111,508111,postoffice,7,17.53235,79.09954,187889
560,PO_560,Chandupatla -508286,508286,postoffice,7,17.50612,78.98023,187860
561,PO_561,Madharam -509320,509320,postoffice,7,16.67383,78.36796,254293
562,PO_562,Cheemalakondur -508286,508286,postoffice,7,17.52228,79.01076,187914
563,PO_563,China Kondur -508252,508252,postoffice,7,17.29952,78.90041,335671
564,PO_564,Chinakandukur -508286,508286,postoffice,7,17.60192,79.016,181683
565,PO_565,Chitakodur -506167,506167,postoffice,7,17.74685,79.17233,167693
566,PO_566,Choller -508286,508286,postoffice,7,17.551,78.99995,187908
567,PO_567,Malleboinpally B.O -509302,509302,postoffice,7,16.75239,78.10278,247744
568,PO_568,Datarpalli -508115,508115,postoffice,7,17.5932,78.89771,198813
569,PO_569,Dudi Venkatapuram -508105,508105,postoffice,7,17.70122,78.97427,192050
570,PO_570,Edulabad -501301,501301,postoffice,7,17.41912,78.71036,230003
571,PO_571,Edullaguda -508112,508112,postoffice,7,17.38152,78.96673,184152
572,PO_572,Gokaram -508252,508252,postoffice,7,17.34355,78.97529,335274
573,PO_573,Marepally -509406,509406,postoffice,7,16.66381,78.26248,193684
574,PO_574,Golankonda -508101,508101,postoffice,7,17.59003,79.13434,179044
575,PO_575,Midjil -509357,509357,postoffice,7,16.74418,78.32258,172018
576,PO_576,Gouraipalli -508105,508105,postoffice,7,17.66748,78.94829,198798
577,PO_577,Gowrelly -501505,501505,postoffice,7,17.37751,78.67229,264863
578,PO_578,Nasarullabad Bo -509302,509302,postoffice,7,16.72854,78.19732,264772
579,PO_579,Guduru -508126,508126,postoffice,7,17.49194,78.823,171036
580,PO_580,Hanumapuram -508117,508117,postoffice,7,17.54229,78.85315,174645
581,PO_581,Nerellapally Bo -509302,509302,postoffice,7,16.67235,78.29203,288656
582,PO_582,Hayat Nagar -501505,501505,postoffice,7,17.3274,78.60638,166828
583,PO_583,Ikkurthi -508286,508286,postoffice,7,17.60217,79.07054,183112
584,PO_584,Inderial -508284,508284,postoffice,7,17.38944,78.87291,206862
585,PO_585,Inkerial -508126,508126,postoffice,7,17.41181,78.76024,173114
586,PO_586,Jangaon Bazaar -506175,506175,postoffice,7,17.72013,79.16151,163929
587,PO_587,Papagal -509209,509209,postoffice,7,16.6634,78.31159,299909
588,PO_588,Jangaon Bazaar -506175,506175,postoffice,7,17.72014,79.16148,164191
589,PO_589,Jangaon H O -506167,506167,postoffice,7,17.7245,79.15225,163585
590,PO_590,Jangaon Head Post Office -506167,506167,postoffice,7,17.7245,79.15238,163526
591,PO_591,Jangaon Head Post Office -506167,506167,postoffice,7,17.7245,79.15238,163635
592,PO_592,Jeedikal -506201,506201,postoffice,7,17.60396,79.15848,168787
593,PO_593,Jiblakpalli -508284,508284,postoffice,7,17.31453,78.86444,208008
594,PO_594,Julur -508284,508284,postoffice,7,17.3867,78.78514,206816
595,PO_595,Polepally B.O -509302,509302,postoffice,7,16.8239,78.11856,247753
596,PO_596,Kacharam -508115,508115,postoffice,7,17.65409,78.9918,198797
597,PO_597,Kallem -506201,506201,postoffice,7,17.66043,79.15741,168771
598,PO_598,Kamchanapalli -508285,508285,postoffice,7,17.44397,78.99752,182411
599,PO_599,Pothreddypally -209215,209215,postoffice,7,16.60884,78.26311,252397
600,PO_600,Pothreddypally -509215,509215,postoffice,7,16.60891,78.26305,252619
601,PO_601,Katepalli -508111,508111,postoffice,7,17.48614,79.04694,187875
602,PO_602,Pothreddypally -509215,509215,postoffice,7,16.60891,78.26305,252411
603,PO_603,Kavadpalli -501505,501505,postoffice,7,17.33487,78.69763,266376
604,PO_604,Khapraipalli -508111,508111,postoffice,7,17.46683,79.22192,202180
605,PO_605,Rachel A Pally Bo -509320,509320,postoffice,7,16.6921,78.39787,253968
606,PO_606,Kolanpaka -508101,508101,postoffice,7,17.69291,79.03491,192038
607,PO_607,Rachel A Pally Bo -509320,509320,postoffice,7,16.6921,78.39787,253923
608,PO_608,Rachel A Pally Bo -509320,509320,postoffice,7,16.6921,78.39787,253977
609,PO_609,Ram Reddy Pally Bo -509320,509320,postoffice,7,16.76607,78.39288,253429
610,PO_610,Kollur -508101,508101,postoffice,7,17.61743,79.09244,178929
611,PO_611,Ram Reddy Pally Bo -509320,509320,postoffice,7,16.76607,78.39288,253412
612,PO_612,Koratikal -508111,508111,postoffice,7,17.49448,79.15913,202184
613,PO_613,Kothapally -506303,506303,postoffice,7,17.64636,79.22713,167823
614,PO_614,Revally -509357,509357,postoffice,7,16.71016,78.37382,299792
615,PO_615,Kunoor -508286,508286,postoffice,7,17.53276,78.97272,253437
616,PO_616,Kuntloor -501505,501505,postoffice,7,17.34283,78.6268,264189
617,PO_617,Sirsawada -509209,509209,postoffice,7,16.63539,78.34491,299819
618,PO_618,Lingala Ghanpur -506201,506201,postoffice,7,17.66149,79.19689,168776
619,PO_619,Stn Jadcherla -509301,509301,postoffice,7,16.75519,78.14369,166294
620,PO_620,Mallapur -508115,508115,postoffice,7,17.63052,78.91187,198810
621,PO_621,Maqdoompalli -508285,508285,postoffice,7,17.45939,78.87062,184040
622,PO_622,Maqdoompalli -508285,508285,postoffice,7,17.4594,78.87057,184046
623,PO_623,Thimmajipet So -509406,509406,postoffice,7,16.66704,78.19307,177720
624,PO_624,U R Kinda Boygh -509320,509320,postoffice,7,16.73192,78.41163,252550
625,PO_625,Urkondapet F -509320,509320,postoffice,7,16.74594,78.43335,252804
626,PO_626,Masaipet -508115,508115,postoffice,7,17.63642,78.96594,198795
627,PO_627,Valluru B.O -509302,509302,postoffice,7,16.80413,78.0799,247749
628,PO_628,Matoor -508286,508286,postoffice,7,17.57928,79.10229,183094
629,PO_629,Vaspul,,postoffice,7,16.77906,78.26908,285335
630,PO_630,Medipalli -508117,508117,postoffice,7,17.53657,78.8239,223069
631,PO_631,Meerpet S.O. -500097,500097,postoffice,7,17.32096,78.53047,177566
632,PO_632,Mogilipaka -508112,508112,postoffice,7,17.42769,79.06429,181270
633,PO_633,Motakondur -508286,508286,postoffice,7,17.54928,79.05021,187903
634,PO_634,Veljal B O -509357,509357,postoffice,7,16.81731,78.3626,196456
635,PO_635,Mungala Thurkapalli -508112,508112,postoffice,7,17.42839,79.10802,180615
636,PO_636,Vemula -509357,509357,postoffice,7,16.78442,78.3191,281664
637,PO_637,Muripirala -508111,508111,postoffice,7,17.48969,79.13243,202185
638,PO_638,Wadiyala -509357,509357,postoffice,7,16.75159,78.31383,282188
639,PO_639,Nagaram -508112,508112,postoffice,7,17.35695,79.02945,184216
640,PO_640,Namila -508105,508105,postoffice,7,17.72828,78.94786,192091
641,PO_641,Nandanam,,postoffice,7,17.44609,78.92442,183918
642,PO_642,Peddapur Bo -509360,509360,postoffice,7,16.78193,78.53522,245053
643,PO_643,Amangal -509321,509321,postoffice,7,16.85206,78.53045,168600
644,PO_644,Andugulaboa/wamangalso -509321,509321,postoffice,7,16.75945,78.7686,249789
645,PO_645,Arkapally -509327,509327,postoffice,7,16.82172,78.764,244080
646,PO_646,Nellutla -506175,506175,postoffice,7,17.70243,79.19659,168713
647,PO_647,Arkapally -509327,509327,postoffice,7,16.82174,78.76399,243948
648,PO_648,Arkapally -509327,509327,postoffice,7,16.82172,78.764,244037
649,PO_649,Arkapally -509327,509327,postoffice,7,16.82174,78.76399,243940
650,PO_650,Barkath Pally -509360,509360,postoffice,7,16.76365,78.53804,275240
651,PO_651,Nyalapatla -508252,508252,postoffice,7,17.3198,78.95266,335034
652,PO_652,Barkath Pally -509360,509360,postoffice,7,16.76365,78.53804,275963
653,PO_653,Obulkesavapur -506221,506221,postoffice,7,17.74977,79.07569,168737
654,PO_654,Bhairapur -509360,509360,postoffice,7,16.76054,78.65625,242916
655,PO_655,Pahilwanpur -508285,508285,postoffice,7,17.42494,78.97667,183150
656,PO_656,Bhairapur -509360,509360,postoffice,7,16.76031,78.65625,242843
657,PO_657,Pahilwanpur -508285,508285,postoffice,7,17.42481,78.9766,183433
658,PO_658,Bogguladone Bo -508258,508258,postoffice,7,16.54261,78.75101,283791
659,PO_659,Pallepahad -508111,508111,postoffice,7,17.5216,79.1832,202182
660,PO_660,Bollam Pally -509360,509360,postoffice,7,16.74111,78.5382,276887
661,PO_661,Pallerla -508111,508111,postoffice,7,17.41517,79.1474,202175
662,PO_662,Bollampally -509360,509360,postoffice,7,16.75715,78.59351,243351
663,PO_663,Parupalli -508111,508111,postoffice,7,17.50908,79.2183,202181
664,PO_664,Bollampally -509360,509360,postoffice,7,16.75715,78.59346,243719
665,PO_665,Parupalli -508105,508105,postoffice,7,17.75093,78.94956,192080
666,PO_666,Bollanapally Bo -508258,508258,postoffice,7,16.60904,78.77988,279286
667,PO_667,Pasaramadla -506201,506201,postoffice,7,17.73632,79.11083,168485
668,PO_668,Pasmamula -501505,501505,postoffice,7,17.35134,78.64854,268152
669,PO_669,Pedda Amberpet -501505,501505,postoffice,7,17.32038,78.63783,260270
670,PO_670,Charakonda Bo -509324,509324,postoffice,7,16.68986,78.70421,188415
671,PO_671,Pedda Amberpet -501505,501505,postoffice,7,17.3203,78.63768,260250
672,PO_672,Cherkur,,postoffice,7,16.77613,78.54346,245109
673,PO_673,Peddakandkur -508286,508286,postoffice,7,17.59839,78.98657,180621
674,PO_674,Cherukupally Bo -508258,508258,postoffice,7,16.60091,78.75948,281076
675,PO_675,Peddaramcherla -506221,506221,postoffice,7,17.73366,79.06783,168746
676,PO_676,Chinthapally S.O 508250 -508250,508250,postoffice,7,16.80203,78.82085,300185
677,PO_677,Peddatur,,postoffice,7,17.36308,78.95977,184119
678,PO_678,Dendichintapally,,postoffice,7,16.52607,78.59811,171457
679,PO_679,Pembarthy S O -506201,506201,postoffice,7,17.68725,79.11972,164195
680,PO_680,Dindi So -508258,508258,postoffice,7,16.55345,78.68905,179226
681,PO_681,Pillayipalli -508284,508284,postoffice,7,17.37496,78.73899,206807
682,PO_682,Pochampalli -508284,508284,postoffice,7,17.34364,78.81724,206801
683,PO_683,Pratapsingaram -500088,500088,postoffice,7,17.3853,78.66196,171648
684,PO_684,Pratapsingaram -500088,500088,postoffice,7,17.3853,78.66196,171658
685,PO_685,Pratapsingaram -500088,500088,postoffice,7,17.3853,78.66196,171580
686,PO_686,Pratapsingaram -500088,500088,postoffice,7,17.3853,78.66196,171605
687,PO_687,Puligilla,,postoffice,7,17.45952,79.02904,182633
688,PO_688,Gazra Bo,,postoffice,7,16.56865,78.66416,184226
689,PO_689,Qutbullapur -501505,501505,postoffice,7,17.37828,78.6408,264568
690,PO_690,Girikothapallyboa/wamangalso -509321,509321,postoffice,7,16.7684,78.73038,248716
691,PO_691,Raghavapuram -508126,508126,postoffice,7,17.42403,78.79096,173113
692,PO_692,Girikothapallyboa/wamangalso -509321,509321,postoffice,7,16.7684,78.73038,248745
693,PO_693,Raghunathapuram -508105,508105,postoffice,7,17.67517,78.96038,192261
694,PO_694,Gokaram Bo,,postoffice,7,16.71374,78.65842,188422
695,PO_695,Rahimkhanpet -508111,508111,postoffice,7,17.47625,79.19578,202179
696,PO_696,Raigir -508286,508286,postoffice,7,17.53531,78.93864,223078
697,PO_697,Gottimukkala Bo -508248,508248,postoffice,7,16.73539,78.82845,261889
698,PO_698,Ramarajpally -506303,506303,postoffice,7,17.59067,79.22946,168014
699,PO_699,Ramarajpally -506303,506303,postoffice,7,17.59067,79.22946,168205
700,PO_700,Redlarepaka -508285,508285,postoffice,7,17.42004,78.99581,182181
701,PO_701,Gundur -509324,509324,postoffice,7,16.59126,78.46092,173951
702,PO_702,Redlarepaka -508285,508285,postoffice,7,17.42011,78.99562,182243
703,PO_703,Saidapuram -508115,508115,postoffice,7,17.61716,78.94483,198794
704,PO_704,Gunthakodur -509209,509209,postoffice,7,16.54684,78.38705,299981
705,PO_705,Iddampally Bo -508248,508248,postoffice,7,16.73282,78.78029,262368
706,PO_706,Sangem -508252,508252,postoffice,7,17.36219,78.93213,335683
707,PO_707,Indrakal -509209,509209,postoffice,7,16.55988,78.3498,295810
708,PO_708,Ippapahad Bo,,postoffice,7,16.76082,78.47117,254295
709,PO_709,Sarada Nagar -500070,500070,postoffice,7,17.32831,78.58528,173177
710,PO_710,Irvinboa/wamangalso -509321,509321,postoffice,7,16.79,78.70155,248470
711,PO_711,Sarvepalli -508111,508111,postoffice,7,17.46161,79.10267,202174
712,PO_712,Jajala Bo,,postoffice,7,16.51676,78.50392,192258
713,PO_713,Seetarampur -508101,508101,postoffice,7,17.55085,79.24381,178964
714,PO_714,Jakhinalapally,,postoffice,7,16.75768,78.45469,254342
715,PO_715,Shamirpet -506175,506175,postoffice,7,17.73861,79.12898,165879
716,PO_716,Shamirpet -506175,506175,postoffice,7,17.73861,79.12898,165388
717,PO_717,Japtisadagodhu -509376,509376,postoffice,7,16.5028,78.57408,285871
718,PO_718,Kalakonda -509360,509360,postoffice,7,16.80556,78.65579,242416
719,PO_719,Shamirpet -506175,506175,postoffice,7,17.73861,79.12898,165896
720,PO_720,Kalwakurthy -509324,509324,postoffice,7,16.66494,78.49131,167408
721,PO_721,Sharajpet -508101,508101,postoffice,7,17.62552,79.10804,178934
722,PO_722,Kamsanipally -509376,509376,postoffice,7,16.50396,78.60942,284209
723,PO_723,Kandukur Bo -508248,508248,postoffice,7,16.65534,78.78342,263525
724,PO_724,Siddenki -506201,506201,postoffice,7,17.71529,79.09406,168755
725,PO_725,Khanapur Bo -508258,508258,postoffice,7,16.62005,78.79741,278402
726,PO_726,Siripuram Bo -506201,506201,postoffice,7,17.6337,79.16135,175764
727,PO_727,Konda Bheemana Pally Bo -508248,508248,postoffice,7,16.69188,78.88009,184483
728,PO_728,Somavaram -508105,508105,postoffice,7,17.7337,78.99589,192058
729,PO_729,Konda Bheemana Pally Bo -508248,508248,postoffice,7,16.69187,78.88009,184524
730,PO_730,Suddala -508277,508277,postoffice,7,17.53367,79.2008,196368
731,PO_731,Kondareddy Pally -509324,509324,postoffice,7,16.63785,78.59067,180278
732,PO_732,Sunkishala,,postoffice,7,17.4151,79.02391,181561
733,PO_733,Konetipur,,postoffice,7,16.6716,78.49371,180245
734,PO_734,Tangtoor -508101,508101,postoffice,7,17.65009,79.10839,178914
735,PO_735,Kurmidda -509320,509320,postoffice,7,16.67305,78.4495,253775
736,PO_736,Taramathipet -501505,501505,postoffice,7,17.35937,78.67817,265340
737,PO_737,Tekulasomaram -508285,508285,postoffice,7,17.40566,78.95517,183546
738,PO_738,Teriala -508111,508111,postoffice,7,17.54212,79.16706,202183
739,PO_739,Lingasanipally -509324,509324,postoffice,7,16.53176,78.47141,173946
740,PO_740,Town Bhongir -508117,508117,postoffice,7,17.5091,78.88839,173829
741,PO_741,Vaidehi Nagar -500070,500070,postoffice,7,17.32101,78.56958,165862
742,PO_742,Valigonda -508112,508112,postoffice,7,17.37533,79.02416,181738
743,PO_743,Vanaparthy -506303,506303,postoffice,7,17.62093,79.23531,167913
744,PO_744,Vanasthalipuram -500070,500070,postoffice,7,17.33264,78.57438,165903
745,PO_745,Mallareddypally -508248,508248,postoffice,7,16.77047,78.831,254916
746,PO_746,Vankamamidi -508284,508284,postoffice,7,17.35703,78.88361,208004
747,PO_747,Varaturu -508286,508286,postoffice,7,17.55184,79.0808,187895
748,PO_748,Veeravalli -508286,508286,postoffice,7,17.48594,79.00811,187869
749,PO_749,Velmazala -508101,508101,postoffice,7,17.57509,79.20963,178954
750,PO_750,Velwarthy,,postoffice,7,17.40255,79.05031,180951
751,PO_751,Marchala.So -509320,509320,postoffice,7,16.69582,78.45592,169477
752,PO_752,Medipur -509209,509209,postoffice,7,16.5641,78.4278,300022
753,PO_753,Wangapalli -508286,508286,postoffice,7,17.57475,78.98503,180614
754,PO_754,Yadagirigutta -508115,508115,postoffice,7,17.58956,78.94425,198791
755,PO_755,Mudigonda Bo -508248,508248,postoffice,7,16.73867,78.86108,252931
756,PO_756,Yadagiripalli -508115,508115,postoffice,7,17.58736,78.94855,198792
757,PO_757,Mukurala -509324,509324,postoffice,7,16.57393,78.5175,184318
758,PO_758,Yellamala -506201,506201,postoffice,7,17.70017,79.11417,168763
759,PO_759,Yeshwanthapur -506175,506175,postoffice,7,17.72838,79.1958,164976
760,PO_760,Akkenapalli,,postoffice,7,17.29645,79.24023,202124
761,PO_761,Nasarlapally B.O 508250 -508250,508250,postoffice,7,16.80305,78.85838,298881
762,PO_762,Padmatpally Bo -508248,508248,postoffice,7,16.69501,78.80209,260657
763,PO_763,Panjugula -509324,509324,postoffice,7,16.62293,78.46503,183515
764,PO_764,Pasnoor B.O -508373,508373,postoffice,7,16.82925,78.9319,293983
765,PO_765,Pole Pally A/w Veldanda So -509360,509360,postoffice,7,16.80724,78.60775,242139
766,PO_766,Bogaram -508113,508113,postoffice,7,17.30397,79.07453,177046
767,PO_767,Rachoor Bo,,postoffice,7,16.73701,78.47532,254146
768,PO_768,Raghupathipet Bo,,postoffice,7,16.51162,78.48384,192853
769,PO_769,Rahamanthapur Bo -508258,508258,postoffice,7,16.64785,78.74995,265009
770,PO_770,Rangapur -509349,509349,postoffice,7,16.55678,78.53897,184290
771,PO_771,Chithapur -508112,508112,postoffice,7,17.37753,79.15395,180472
772,PO_772,Rangapur -509324,509324,postoffice,7,16.55678,78.53897,184288
773,PO_773,Sarvareddypally,,postoffice,7,16.67165,78.49375,196183
774,PO_774,Seripalli Bo -508248,508248,postoffice,7,16.74987,78.90183,252893
775,PO_775,Dattappagudem -508277,508277,postoffice,7,17.38839,79.22892,196353
776,PO_776,Sirsanagandla Bo,,postoffice,7,16.72927,78.7468,188425
777,PO_777,T.Gowraram Bo -508258,508258,postoffice,7,16.61039,78.81124,277913
778,PO_778,Dubbaka,,postoffice,7,17.3178,79.12961,176816
779,PO_779,Tadoor -509376,509376,postoffice,7,16.47203,78.65197,281330
780,PO_780,Duppelli -508111,508111,postoffice,7,17.36757,79.18186,202176
781,PO_781,Tadoor -509376,509376,postoffice,7,16.47203,78.65197,281384
782,PO_782,Thandra -509324,509324,postoffice,7,16.68759,78.52232,250366
783,PO_783,Thotapally -509320,509320,postoffice,7,16.62593,78.39388,253160
784,PO_784,Thotapally -509320,509320,postoffice,7,16.6261,78.39387,261825
785,PO_785,Goparajupalli,,postoffice,7,17.36552,79.16957,180429
786,PO_786,Tippareddypalli,,postoffice,7,16.57786,78.67194,173972
787,PO_787,Towklapur Bo -508258,508258,postoffice,7,16.62965,78.72072,265345
788,PO_788,Turnikal -50320,,postoffice,7,16.62844,78.45637,254942
789,PO_789,Turpupally Bo -508248,508248,postoffice,7,16.69104,78.81977,269219
790,PO_790,Vangoor -509349,509349,postoffice,7,16.60835,78.62619,169455
791,PO_791,Vangoor -509349,509349,postoffice,7,16.60843,78.62612,168242
792,PO_792,Iskilla -508113,508113,postoffice,7,17.29549,79.16584,185342
793,PO_793,Vavilkol Bo -508258,508258,postoffice,7,16.67117,78.754,269197
794,PO_794,Veeraboinapally Bo -508258,508258,postoffice,7,16.63884,78.69028,265458
795,PO_795,Veldanda -509360,509360,postoffice,7,16.74112,78.53872,174731
796,PO_796,Veldanda -509360,509360,postoffice,7,16.74111,78.5382,277768
797,PO_797,Kakkireni -508113,508113,postoffice,7,17.30391,79.20372,176249
798,PO_798,Veltoor -509376,509376,postoffice,7,16.50558,78.66781,280570
799,PO_799,Veltoor -509376,509376,postoffice,7,16.50579,78.66786,280443
800,PO_800,Vepoor -509320,509320,postoffice,7,16.59698,78.41235,252991
801,PO_801,Vepoor -509320,509320,postoffice,7,16.59695,78.41232,252899
802,PO_802,Yadireddy Pally -509209,509209,postoffice,7,16.55766,78.37435,299949
803,PO_803,Yellikal -509324,509324,postoffice,7,16.61551,78.5438,281415
804,PO_804,Kurella -508111,508111,postoffice,7,17.42772,79.18753,202178
805,PO_805,Zoopally -509324,509324,postoffice,7,16.63985,78.59894,250369
806,PO_806,Laxmapuram -508113,508113,postoffice,7,17.34977,79.11618,175842
807,PO_807,Azmapur B.O -508243,508243,postoffice,7,16.62226,79.06816,179648
808,PO_808,Bandathimmapuram B.O -508243,508243,postoffice,7,16.7839,78.98027,293281
809,PO_809,Chilakamarri -508257,508257,postoffice,7,16.7296,79.03782,328718
810,PO_810,Chinthakuntla -508243,508243,postoffice,7,16.6779,79.01854,179807
811,PO_811,Devarakonda Lsg So -508248,508248,postoffice,7,16.69187,78.92321,177689
812,PO_812,Devathpally B.O -508243,508243,postoffice,7,16.78072,78.94839,293049
813,PO_813,Duggiala -508243,508243,postoffice,7,16.68106,79.09497,179358
814,PO_814,Dugyala -508243,508243,postoffice,7,16.68113,79.09485,179427
815,PO_815,Gandhinagar Tso -508248,508248,postoffice,7,16.69396,78.91637,177729
816,PO_816,Munipampula -508113,508113,postoffice,7,17.32,79.1525,176080
817,PO_817,Gatlamallepally B.O -508373,508373,postoffice,7,16.84978,78.99255,295008
818,PO_818,Musipatla,,postoffice,7,17.41091,79.2438,196356
819,PO_819,Gb Palli -508257,508257,postoffice,7,16.78842,79.15296,328737
820,PO_820,Ghanapur,,postoffice,7,16.73894,79.11749,330641
821,PO_821,Gonaboinapally Bo -508258,508258,postoffice,7,16.54173,78.81548,283857
822,PO_822,Gudipalli -508257,508257,postoffice,7,16.76384,79.07953,184826
823,PO_823,Gummadavalli -508257,508257,postoffice,7,16.74961,79.00436,353246
824,PO_824,Paladugu -508111,508111,postoffice,7,17.3933,79.2024,202177
825,PO_825,Palliwada -508113,508113,postoffice,7,17.33013,79.17429,176165
826,PO_826,Kamepally Bo -508258,508258,postoffice,7,16.61534,78.83316,275704
827,PO_827,Kondamallepally -508243,508243,postoffice,7,16.71501,78.97678,177865
828,PO_828,Mannevaripally -509375,509375,postoffice,7,16.5338,78.89896,352292
829,PO_829,Shobhanadripuram -508113,508113,postoffice,7,17.34952,79.09393,177018
830,PO_830,Medaram B.O -508266,508266,postoffice,7,16.69013,79.13151,203167
831,PO_831,Suraram -508113,508113,postoffice,7,17.36445,79.2235,176914
832,PO_832,Meldavai B.O -508373,508373,postoffice,7,16.82619,78.9702,293687
833,PO_833,Meldavai B.O -508373,508373,postoffice,7,16.82619,78.9702,293794
834,PO_834,Mosangi -508257,508257,postoffice,7,16.80929,79.18636,328730
835,PO_835,Mustipally B.O -508243,508243,postoffice,7,16.76866,78.96543,293104
836,PO_836,Thummalaguda -508112,508112,postoffice,7,17.33399,79.05174,184227
837,PO_837,Neredgum Bo -508248,508248,postoffice,7,16.62084,78.97914,185362
838,PO_838,Palwai -508257,508257,postoffice,7,16.75721,79.03538,328777
839,PO_839,Parvedula B.O -508266,508266,postoffice,7,16.66809,79.21898,204039
840,PO_840,Pedda Adishrlapally -508243,508243,postoffice,7,16.68477,79.06916,177989
841,PO_841,Peddaadisrlapally B.O -508243,508243,postoffice,7,16.68478,79.06929,180561
842,PO_842,Peddavoora S.O -508266,508266,postoffice,7,16.72827,79.20804,204666
843,PO_843,Pendlipakala B.O -508243,508243,postoffice,7,16.66797,78.99442,179853
844,PO_844,Penimila -509376,509376,postoffice,7,16.52165,78.73479,279370
845,PO_845,Pothunoor B.O -508266,508266,postoffice,7,16.69895,79.17045,204807
846,PO_846,Pothunoor B.O -508266,508266,postoffice,7,16.69895,79.17045,207854
847,PO_847,Vemulakonda -508112,508112,postoffice,7,17.36136,79.12715,180376
848,PO_848,Pothunoor B.O -508266,508266,postoffice,7,16.69899,79.17048,204744
849,PO_849,Pulicherla B.O -508266,508266,postoffice,7,16.66088,79.16067,206529
850,PO_850,Pulicherla B.O -508266,508266,postoffice,7,16.66088,79.16068,207870
851,PO_851,Yennaram,,postoffice,7,17.32107,79.2046,185046
852,PO_852,Puratwanipally -509376,509376,postoffice,7,16.48144,78.69819,278504
853,PO_853,Shagazipur -508257,508257,postoffice,7,16.79395,79.01066,353256
854,PO_854,Shakavally Bo -508248,508248,postoffice,7,16.64557,78.94997,204608
855,PO_855,Sirasanagandla B.O -508266,508266,postoffice,7,16.79133,79.25306,204549
856,PO_856,Sultanpur -508257,508257,postoffice,7,16.83271,79.03007,353251
857,PO_857,Tadikol Bo -508248,508248,postoffice,7,16.65014,78.86089,275468
858,PO_858,Teppalamadugu B.O -508266,508266,postoffice,7,16.76393,79.23955,204374
859,PO_859,Teppalamadugu B.O -508266,508266,postoffice,7,16.76385,79.23955,204350
860,PO_860,Teppalamadugu B.O -508266,508266,postoffice,7,16.76385,79.23955,204311
861,PO_861,Teppalamadugu B.O -508266,508266,postoffice,7,16.76389,79.23948,204406
862,PO_862,Thungathurthi B.O -508266,508266,postoffice,7,16.71718,79.24192,204226
863,PO_863,Timmapur Bo -508248,508248,postoffice,7,16.61383,78.9505,185279
864,PO_864,Vaddipatla Bo -508243,508243,postoffice,7,16.6384,79.11458,179540
865,PO_865,Velmagudem B.O -508266,508266,postoffice,7,16.77617,79.18825,206809
866,PO_866,Vutlapally B.O -508266,508266,postoffice,7,16.63342,79.17502,203921
867,PO_867,Yerraram Bo -508258,508258,postoffice,7,16.59691,78.84342,277521
868,PO_868,Bompally -501502,501502,postoffice,7,17.11579,77.87176,174247
869,PO_869,Manneguda Bo -501102,501102,postoffice,7,17.29831,77.99474,380967
870,PO_870,Mittakoduru -501501,501501,postoffice,7,17.2014,77.81328,226511
871,PO_871,Mominkalan -501121,501121,postoffice,7,17.22907,77.82025,378148
872,PO_872,Pudur Bo -501102,501102,postoffice,7,17.2635,77.95977,381077
873,PO_873,Purgi -501501,501501,postoffice,7,17.1708,77.86172,179246
874,PO_874,Rupkhanpet -501501,501501,postoffice,7,17.17239,77.84002,226315
875,PO_875,Shivareddypally -501502,501502,postoffice,7,17.11567,77.88971,382313
876,PO_876,Somangurthi -501501,501501,postoffice,7,17.22596,77.93601,230091
877,PO_877,Sultanpur -501501,501501,postoffice,7,17.16092,77.86614,226166
878,PO_878,Tharigopula. B.O -501121,501121,postoffice,7,17.26965,77.81799,380406
879,PO_879,Wootpally -501502,501502,postoffice,7,17.13065,77.85303,382942
880,PO_880,Agiryala -509207,509207,postoffice,7,17.04776,78.1084,257679
881,PO_881,Ameerpeta -509325,509325,postoffice,7,17.1444,78.32682,251933
882,PO_882,Annaram -509202,509202,postoffice,7,17.02114,78.1981,253049
883,PO_883,Balanagar Sub Post Office -509202,509202,postoffice,7,16.9745,78.18943,176156
884,PO_884,Bangaram Bo -501218,501218,postoffice,7,17.18171,78.39131,220852
885,PO_885,Boorgula -509202,509202,postoffice,7,16.97865,78.2191,253718
886,PO_886,Boorgula -509202,509202,postoffice,7,16.97865,78.2191,253493
887,PO_887,Burgula -509202,509202,postoffice,7,16.9796,78.22202,261299
888,PO_888,Chandanvelly -501503,501503,postoffice,7,17.23258,78.1724,226757
889,PO_889,Chanvelly -501503,501503,postoffice,7,17.27,78.09959,227007
890,PO_890,Chatanpally -509216,509216,postoffice,7,17.07845,78.22654,277801
891,PO_891,Chegur -509325,509325,postoffice,7,17.17477,78.22922,243647
892,PO_892,Chengomal -501501,501501,postoffice,7,17.25703,78.02811,230045
893,PO_893,Chinna Golkonda -501218,501218,postoffice,7,17.2084,78.39007,220998
894,PO_894,Chityal -501501,501501,postoffice,7,17.12584,77.96623,229383
895,PO_895,Chowdapur -509340,509340,postoffice,7,16.98721,77.97645,171723
896,PO_896,Chowdargudem -509207,509207,postoffice,7,17.08303,77.9914,269238
897,PO_897,Chowdoor -509202,509202,postoffice,7,16.97656,78.06695,275564
898,PO_898,Chowdoor -509202,509202,postoffice,7,16.98858,78.04833,275571
899,PO_899,Dubbacherla -509325,509325,postoffice,7,17.10729,78.37259,252551
900,PO_900,Edira -509207,509207,postoffice,7,17.0064,77.99255,256819
901,PO_901,Edira -509207,509207,postoffice,7,17.0064,77.99255,256922
902,PO_902,Farooqnagar -509216,509216,postoffice,7,17.07879,78.20556,275039
903,PO_903,Farooqnagar -50921601,509216,postoffice,7,17.07884,78.20555,276938
904,PO_904,Fathimapur -509325,509325,postoffice,7,17.16756,78.27897,243029
905,PO_905,Gollapalli Kalan -501218,501218,postoffice,7,17.23752,78.39975,220582
906,PO_906,Gundal -501503,501503,postoffice,7,17.25067,78.15729,226645
907,PO_907,Gunded Bo -509202,509202,postoffice,7,16.95052,78.17965,242266
908,PO_908,Hythabad -509217,509217,postoffice,7,17.22381,78.20067,197037
909,PO_909,Inmulnarva -509228,509228,postoffice,7,17.08317,78.29519,246541
910,PO_910,Kadmoor -501501,501501,postoffice,7,17.22076,78.03264,184435
911,PO_911,Kalwakoke -509325,509325,postoffice,7,17.15799,78.34137,277770
912,PO_912,Kalwakole -509325,509325,postoffice,7,17.13437,78.37371,252360
913,PO_913,Kammadanam -509216,509216,postoffice,7,17.02415,78.2287,264483
914,PO_914,Kandawada -501503,501503,postoffice,7,17.27673,78.17835,226539
915,PO_915,Kandlapally -501503,501503,postoffice,7,17.29092,78.02198,227261
916,PO_916,Kankal -501501,501501,postoffice,7,17.20017,78.00644,228761
917,PO_917,Kettireddypalli -501504,501504,postoffice,7,17.24328,78.25982,225828
918,PO_918,Kollur -509202,509202,postoffice,7,16.98858,78.04833,276476
919,PO_919,Kollur -509202,509202,postoffice,7,16.97997,78.04573,276482
920,PO_920,Kondurgu Post Office -509207,509207,postoffice,7,17.09836,78.03631,181043
921,PO_921,Kondurgu Post Office -509207,509207,postoffice,7,17.09831,78.03627,180913
922,PO_922,Kothapally B.O -509340,509340,postoffice,7,16.9268,77.95937,171433
923,PO_923,Kothur -509228,509228,postoffice,7,17.14685,78.28753,246562
924,PO_924,Kudhuvanpur -501501,501501,postoffice,7,17.1358,77.93294,228867
925,PO_925,Kudmoor -501501,501501,postoffice,7,17.22073,78.03242,230238
926,PO_926,Mamidipally -509217,509217,postoffice,7,17.15448,78.18501,197330
927,PO_927,Mamidipally B.O -500005,500005,postoffice,7,17.25193,78.45173,281532
928,PO_928,Manchanapally -501501,501501,postoffice,7,17.18296,77.95365,184752
929,PO_929,Marrikal B.O -509340,509340,postoffice,7,16.92273,77.98754,171272
930,PO_930,Medipally -501501,501501,postoffice,7,17.23185,78.01046,229915
931,PO_931,Mothighanapur -509202,509202,postoffice,7,16.9934,78.19221,253722
932,PO_932,Mujahidpur,,postoffice,7,17.06263,77.91157,386447
933,PO_933,Mujahidpur,,postoffice,7,17.06263,77.91157,386450
934,PO_934,Nagulapally -509216,509216,postoffice,7,17.10116,78.20051,275412
935,PO_935,Nagulpally -509216,509216,postoffice,7,17.10116,78.20068,277560
936,PO_936,Nandigaon -509228,509228,postoffice,7,17.11802,78.25583,246335
937,PO_937,Narkhuda -501218,501218,postoffice,7,17.25862,78.33497,276104
938,PO_938,Narkhuda -501218,501218,postoffice,7,17.25863,78.33491,276246
939,PO_939,Nawabpet -509340,509340,postoffice,7,16.89703,78.03048,171000
940,PO_940,Nizampet Medipally -501501,501501,postoffice,7,17.15873,78.00057,229638
941,PO_941,Palmakole -509325,509325,postoffice,7,17.1834,78.30441,251243
942,PO_942,Pamena -501503,501503,postoffice,7,17.27436,78.123,226928
943,PO_943,Papireddyguda -509216,509216,postoffice,7,17.00753,78.27185,277734
944,PO_944,Pedda Ummenthyal -501501,501501,postoffice,7,17.22314,77.98422,203699
945,PO_945,Penjerla -509228,509228,postoffice,7,17.11062,78.32139,254087
946,PO_946,Petamadaram -501501,501501,postoffice,7,17.1831,77.95357,184530
947,PO_947,Petamadaram -501501,501501,postoffice,7,17.183,77.95368,184559
948,PO_948,Pomal -509202,509202,postoffice,7,16.95422,77.99757,277240
949,PO_949,Pomal -509202,509202,postoffice,7,16.96056,78.01452,277239
950,PO_950,Raikal -509202,509202,postoffice,7,17.00174,78.19429,253443
951,PO_951,Rapole -501501,501501,postoffice,7,17.13951,77.95424,229266
952,PO_952,Reddipalem -509325,509325,postoffice,7,17.19211,78.27821,242853
953,PO_953,Regad Doswada -501501,501501,postoffice,7,17.21896,78.08402,184355
954,PO_954,Regad Doswada -501501,501501,postoffice,7,17.21896,78.08402,184375
955,PO_955,Regadighanapur -501503,501503,postoffice,7,17.2683,78.06177,227127
956,PO_956,Sardarnagar -509217,509217,postoffice,7,17.09315,78.16731,197427
957,PO_957,Shahabad -509217,509217,postoffice,7,17.16192,78.1319,184726
958,PO_958,Shahabad -509217,509217,postoffice,7,17.16194,78.13192,184703
959,PO_959,Shamshabad -501218,501218,postoffice,7,17.2609,78.39582,217159
960,PO_960,Shapur -509325,509325,postoffice,7,17.22653,78.33976,278413
961,PO_961,Shapur -509325,509325,postoffice,7,17.22624,78.34848,251545
962,PO_962,Shdnagar -509216,509216,postoffice,7,17.06872,78.20794,275025
963,PO_963,Shdnagar -509216,509216,postoffice,7,17.06872,78.20794,174600
964,PO_964,Syedpally -501501,501501,postoffice,7,17.10929,77.94249,229186
965,PO_965,Syedpally -501501,501501,postoffice,7,17.1093,77.94248,229144
966,PO_966,Tallapally -509217,509217,postoffice,7,17.23504,78.12515,188580
967,PO_967,Thangallapally -509207,509207,postoffice,7,17.03448,78.04644,261212
968,PO_968,Thangallapally -509207,509207,postoffice,7,17.03448,78.04644,261519
969,PO_969,Thondupalli -509325,509325,postoffice,7,17.24048,78.36201,251443
970,PO_970,Thummalapally -509207,509207,postoffice,7,17.13429,78.01465,284949
971,PO_971,Veerlapally -509325,509325,postoffice,7,17.13255,78.22307,243376
972,PO_972,Venkatapur -501504,501504,postoffice,7,17.18287,78.14346,225612
973,PO_973,Adibatla -501510,501510,postoffice,7,17.23236,78.54116,237398
974,PO_974,Agapalli -501506,501506,postoffice,7,17.12645,78.66913,240625
975,PO_975,Akulamailaram -501509,501509,postoffice,7,17.06731,78.5737,220800
976,PO_976,Ammapur Bo -509340,509340,postoffice,7,16.83984,78.1519,175652
977,PO_977,Anajpur -501512,501512,postoffice,7,17.2697,78.69353,261907
978,PO_978,Antharam,,postoffice,7,16.83592,78.34892,265807
979,PO_979,Arutla -501508,501508,postoffice,7,17.13026,78.75699,248271
980,PO_980,Badangpet B.O -500058,500058,postoffice,7,17.30517,78.52544,295425
981,PO_981,Chandradana,,postoffice,7,16.85557,78.39004,246476
982,PO_982,Chandradhana,,postoffice,7,16.85546,78.39004,267721
983,PO_983,Cheepununthalaboa/woman Gaps I -509321,509321,postoffice,7,16.90402,78.44459,244219
984,PO_984,Cherlapatelguda -501506,501506,postoffice,7,17.16758,78.63369,239682
985,PO_985,Cherlapatelguda -501506,501506,postoffice,7,17.16762,78.63364,239707
986,PO_986,Chinthapatla -501509,501509,postoffice,7,17.01314,78.71022,222256
987,PO_987,Chippalapalli -501359,501359,postoffice,7,17.04781,78.39712,262412
988,PO_988,Choutuppal -508252,508252,postoffice,7,17.25848,78.89914,181927
989,PO_989,Chowdarpally -501509,501509,postoffice,7,17.06263,78.65232,221369
990,PO_990,Chukkapurboa/wamangalso -509321,509321,postoffice,7,16.88062,78.46725,243950
991,PO_991,Dandumailaram -501508,501508,postoffice,7,17.23494,78.75972,249592
992,PO_992,Dandumalkapur -508252,508252,postoffice,7,17.27457,78.79694,336542
993,PO_993,Debbadaguda -501359,501359,postoffice,7,17.04906,78.49539,264657
994,PO_994,Devulamma Nagaram -508252,508252,postoffice,7,17.24296,78.84571,336271
995,PO_995,Edganpally Bo -509302,509302,postoffice,7,16.84619,78.21183,218344
996,PO_996,Ekvaipally -509358,509358,postoffice,7,16.92725,78.564,244433
997,PO_997,Eliminedu -501506,501506,postoffice,7,17.14577,78.59302,239922
998,PO_998,Fathepur Bo -509340,509340,postoffice,7,16.84143,78.15055,174212
999,PO_999,Gudimalkapur -508253,508253,postoffice,7,17.20697,78.89535,330746
1000,PO_1000,Gummadavalli -501506,501506,postoffice,7,17.13087,78.57371,240185
1001,PO_1001,Gungal -501506,501506,postoffice,7,17.10594,78.66888,240683
1002,PO_1002,Gurukunta Bo -509340,509340,postoffice,7,16.83984,78.1519,175853
1003,PO_1003,Ibrahimpatnam -501506,501506,postoffice,7,17.19738,78.65051,171996
1004,PO_1004,Ippatoor Bo -509340,509340,postoffice,7,16.84143,78.15055,174800
1005,PO_1005,Japal -501508,501508,postoffice,7,17.12046,78.71962,248280
1006,PO_1006,Julapally,,postoffice,7,16.85773,78.35896,265258
1007,PO_1007,Kadthal -509358,509358,postoffice,7,16.9854,78.50112,171681
1008,PO_1008,Kadthal -509358,509358,postoffice,7,16.98549,78.50098,171633
1009,PO_1009,Kadthal -509358,509358,postoffice,7,16.9853,78.50113,171705
1010,PO_1010,Kadthal -509358,509358,postoffice,7,16.98555,78.50101,244652
1011,PO_1011,Kakarlapad Bo -509340,509340,postoffice,7,16.83984,78.1519,174091
1012,PO_1012,Kandukoor -501359,501359,postoffice,7,17.065,78.48816,264318
1013,PO_1013,Kappapahad -501506,501506,postoffice,7,17.14014,78.61861,239775
1014,PO_1014,Karkalpahad B O -509358,509358,postoffice,7,16.92693,78.52234,243366
1015,PO_1015,Karkalpahad B O -509358,509358,postoffice,7,16.92685,78.52232,243308
1016,PO_1016,Karkonda Bo -509340,509340,postoffice,7,16.83984,78.1519,174370
1017,PO_1017,Karkonda Bo -509340,509340,postoffice,7,16.83984,78.1519,174387
1018,PO_1018,Karoor Bo -509340,509340,postoffice,7,16.84143,78.15055,175168
1019,PO_1019,Karoor.B.O -509340,509340,postoffice,7,16.86936,78.10398,174898
1020,PO_1020,Keshampet -509408,509408,postoffice,7,16.9545,78.34853,183242
1021,PO_1021,Khanapuram -509321,509321,postoffice,7,16.8559,78.46602,243543
1022,PO_1022,Khanapuram -509321,509321,postoffice,7,16.85587,78.46603,243432
1023,PO_1023,Khanapuram -509321,509321,postoffice,7,16.85587,78.46603,243502
1024,PO_1024,Khanapuramboa/wamangalso -509321,509321,postoffice,7,16.85592,78.46604,243664
1025,PO_1025,Kodgal Bo -509302,509302,postoffice,7,16.82806,78.22811,288603
1026,PO_1026,Koheda -501511,501511,postoffice,7,17.28233,78.63594,260796
1027,PO_1027,Konapur -509358,509358,postoffice,7,16.90199,78.55089,243992
1028,PO_1028,Konapur B O -509358,509358,postoffice,7,16.90201,78.55094,243518
1029,PO_1029,Kondapur Bo -509340,509340,postoffice,7,16.84143,78.15055,176171
1030,PO_1030,Kongarakalan -501510,501510,postoffice,7,17.19999,78.55003,236873
1031,PO_1031,Kongaravirala -501510,501510,postoffice,7,17.21742,78.51146,237176
1032,PO_1032,Kothapalli Bo -501509,501509,postoffice,7,16.97339,78.67881,226025
1033,PO_1033,Koyyalagudem -508252,508252,postoffice,7,17.25409,78.84589,336409
1034,PO_1034,Kucherkal -509202,509202,postoffice,7,16.88271,78.16783,243155
1035,PO_1035,Kuchur Bo -509340,509340,postoffice,7,16.83984,78.1519,174671
1036,PO_1036,Kurmidda Bo -501509,501509,postoffice,7,17.03301,78.57388,220237
1037,PO_1037,Lemur -501359,501359,postoffice,7,17.13782,78.51509,268618
1038,PO_1038,Lingampalli Bo -509340,509340,postoffice,7,16.83984,78.1519,175538
1039,PO_1039,Lingampally -501508,501508,postoffice,7,17.15991,78.72184,246527
1040,PO_1040,Lingampally -501508,501508,postoffice,7,17.15991,78.72184,246369
1041,PO_1041,Lingojigudem -508252,508252,postoffice,7,17.25982,78.93395,334658
1042,PO_1042,Madhapur -501506,501506,postoffice,7,17.12917,78.58085,239999
1043,PO_1043,Madhulapur -509202,509202,postoffice,7,16.96022,78.26811,261932
1044,PO_1044,Maisaram -501359,501359,postoffice,7,17.13263,78.4355,260609
1045,PO_1045,Manchal -501508,501508,postoffice,7,17.16168,78.72157,248330
1046,PO_1046,Mangalpally -501510,501510,postoffice,7,17.21039,78.59437,236516
1047,PO_1047,Mankhal -501359,501359,postoffice,7,17.20123,78.4696,178257
1048,PO_1048,Mankhal -501359,501359,postoffice,7,17.20128,78.46965,195470
1049,PO_1049,Medipally Bo -501509,501509,postoffice,7,17.00123,78.64734,225403
1050,PO_1050,Meerkhanpet Bo -501509,501509,postoffice,7,17.04747,78.57488,220678
1051,PO_1051,Mondigowrelli Bo -501509,501509,postoffice,7,17.03506,78.70334,222092
1052,PO_1052,Mucherla -509358,509358,postoffice,7,17.0152,78.51471,244990
1053,PO_1053,Mudvinboa/wamangalso -509321,509321,postoffice,7,16.9076,78.60519,247919
1054,PO_1054,Nadergul -501510,501510,postoffice,7,17.27374,78.54213,237610
1055,PO_1055,Nallavelli Bo -501509,501509,postoffice,7,17.00156,78.73229,222375
1056,PO_1056,Nandi Wanaparti -501509,501509,postoffice,7,17.04477,78.63542,224820
1057,PO_1057,Narayanapur -508253,508253,postoffice,7,17.16217,78.88196,226266
1058,PO_1058,Narayanapur -508253,508253,postoffice,7,17.16217,78.88197,226240
1059,PO_1059,Nazdik Singaram Bo -501509,501509,postoffice,7,17.04053,78.60709,224947
1060,PO_1060,Nedunoor -501359,501359,postoffice,7,17.03677,78.45077,263756
1061,PO_1061,Pahadishareef B.O -500005,500005,postoffice,7,17.27204,78.47201,280912
1062,PO_1062,Peepal Pahad -508252,508252,postoffice,7,17.22069,78.84823,336420
1063,PO_1063,Pocharam -501506,501506,postoffice,7,17.177,78.60257,240960
1064,PO_1064,Polkampally -501508,501508,postoffice,7,17.23195,78.69017,249967
1065,PO_1065,Pomal Pally -509202,509202,postoffice,7,16.95086,78.2863,263269
1066,PO_1066,Pomalpally -509202,509202,postoffice,7,16.98174,78.27377,263303
1067,PO_1067,Pulimamidi -501359,501359,postoffice,7,17.06551,78.41989,261349
1068,PO_1068,Rachuloor -501359,501359,postoffice,7,17.1159,78.53751,267925
1069,PO_1069,Ragannaguda X Roads -501510,501510,postoffice,7,17.27572,78.58865,183508
1070,PO_1070,Raipole So -501508,501508,postoffice,7,17.20464,78.71503,171733
1071,PO_1071,Rajapur -509202,509202,postoffice,7,16.84903,78.15927,242952
1072,PO_1072,Ramdaspally -501510,501510,postoffice,7,17.23524,78.63019,240693
1073,PO_1073,Ramdaspally -501510,501510,postoffice,7,17.23543,78.63048,238147
1074,PO_1074,Ramoji Film City -501512,501512,postoffice,7,17.26287,78.68347,169669
1075,PO_1075,Ajjamarry -502314,502314,postoffice,7,17.82457,78.11154,300216
1076,PO_1076,Ramoji Film City -501512,501512,postoffice,7,17.25927,78.67871,198043
1077,PO_1077,Akkannapet -502115,502115,postoffice,7,18.11451,78.39958,178144
1078,PO_1078,Rampur,,postoffice,7,16.84966,78.40537,266789
1079,PO_1079,Aksanpally -502270,502270,postoffice,7,17.81994,77.97979,306154
1080,PO_1080,Rampur -509357,509357,postoffice,7,16.84969,78.40548,267150
1081,PO_1081,Rangapur -501508,501508,postoffice,7,17.09034,78.71524,248278
1082,PO_1082,Amsanpalli,,postoffice,7,17.94242,78.23956,176449
1083,PO_1083,Rangareddyguda -509202,509202,postoffice,7,16.90161,78.18009,273194
1084,PO_1084,Andole -502273,502273,postoffice,7,17.81686,78.07602,165712
1085,PO_1085,Rangareddyguda -509202,509202,postoffice,7,16.90504,78.17997,242780
1086,PO_1086,Rci -500069,500069,postoffice,7,17.26423,78.48576,178106
1087,PO_1087,Sheriguda -501510,501510,postoffice,7,17.21052,78.61904,240836
1088,PO_1088,Siddapur -509228,509228,postoffice,7,17.05774,78.3529,254685
1089,PO_1089,Ausulapalli,,postoffice,7,18.07538,78.28702,177905
1090,PO_1090,Talakondapallyboa/wamangalso -509321,509321,postoffice,7,16.88607,78.4161,244799
1091,PO_1091,Bacharam,,postoffice,7,18.00745,78.07245,196305
1092,PO_1092,Talakondapallyboa/wamangalso -509321,509321,postoffice,7,16.88601,78.41612,244530
1093,PO_1093,Baswapur -503101,503101,postoffice,7,18.15617,78.41801,193075
1094,PO_1094,Talakondapallyboa/wamangalso -509321,509321,postoffice,7,16.88607,78.4161,244758
1095,PO_1095,Baswapur -502293,502293,postoffice,7,17.76932,77.98538,173965
1096,PO_1096,Talakondapallyboa/wamangalso -509321,509321,postoffice,7,16.88601,78.41612,244556
1097,PO_1097,Baswapur -502293,502293,postoffice,7,17.76932,77.98538,173974
1098,PO_1098,Talakondapallyboa/wamangalso -509321,509321,postoffice,7,16.88602,78.41614,244572
1099,PO_1099,Baswapur -502293,502293,postoffice,7,17.7694,77.98529,173904
1100,PO_1100,Talakondapallyboa/wamangalso -509321,509321,postoffice,7,16.88602,78.41614,244584
1101,PO_1101,Bhiknoor -503101,503101,postoffice,7,18.19186,78.40192,190348
1102,PO_1102,Tatiparthy -501509,501509,postoffice,7,17.00285,78.59623,220390
1103,PO_1103,Bhinoor.Rs -503101,503101,postoffice,7,18.16328,78.399,193850
1104,PO_1104,Thadlapalliguda -501508,501508,postoffice,7,17.18828,78.73753,246545
1105,PO_1105,Bhoguda Bhupathipur,,postoffice,7,18.09905,78.22657,192384
1106,PO_1106,Thimmapur -501506,501506,postoffice,7,17.12897,78.55872,240077
1107,PO_1107,Thirumalapur Bo -509340,509340,postoffice,7,16.84143,78.15055,175383
1108,PO_1108,Toolkalan -501509,501509,postoffice,7,17.101,78.62985,221163
1109,PO_1109,Bodmatpally Bo -502269,502269,postoffice,7,17.94123,77.98333,284880
1110,PO_1110,Toolkhurd Bo -501509,501509,postoffice,7,17.08323,78.61324,221028
1111,PO_1111,Bodmatpally Bo -502269,502269,postoffice,7,17.94123,77.98333,284913
1112,PO_1112,Torrur -501511,501511,postoffice,7,17.29144,78.61176,261028
1113,PO_1113,Bodmatpally Bo -502269,502269,postoffice,7,17.94123,77.98333,286462
1114,PO_1114,Turkayamzal -501510,501510,postoffice,7,17.26831,78.57648,237714
1115,PO_1115,Vinjapur -501510,501510,postoffice,7,17.29955,78.58381,240698
1116,PO_1116,Bujrampet,,postoffice,7,17.91702,78.13921,188372
1117,PO_1117,Vittaipallyboa/wamangalso -509321,509321,postoffice,7,16.87907,78.52917,254621
1118,PO_1118,Vittaipallyboa/wamangalso -509321,509321,postoffice,7,16.87907,78.52917,254633
1119,PO_1119,Chandur -502314,502314,postoffice,7,17.8749,78.10083,302127
1120,PO_1120,Yacharam S.O. -501509,501509,postoffice,7,17.04237,78.6646,172648
1121,PO_1121,Yanmangandla Bo -509340,509340,postoffice,7,16.83984,78.1519,175983
1122,PO_1122,Chilapched -502314,502314,postoffice,7,17.8701,78.11787,303624
1123,PO_1123,Yemaji Pur -509202,509202,postoffice,7,16.94621,78.24995,263769
1124,PO_1124,Yemajipur -509202,509202,postoffice,7,16.9823,78.28403,263818
1125,PO_1125,Chintakunta -502270,502270,postoffice,7,17.88059,78.06387,305696
1126,PO_1126,Aipoor -508114,508114,postoffice,7,17.20087,78.99138,186971
1127,PO_1127,Chitkul -502270,502270,postoffice,7,17.89456,78.0974,171001
1128,PO_1128,Aipoor -508114,508114,postoffice,7,17.20078,78.99128,187026
1129,PO_1129,Dakoor -502270,502270,postoffice,7,17.82629,78.02871,306205
1130,PO_1130,Dakoor -502270,502270,postoffice,7,17.82633,78.02874,171300
1131,PO_1131,Dakoor -502270,502270,postoffice,7,17.82638,78.02852,171202
1132,PO_1132,Akuthotapallyboa/wamangalso -509321,509321,postoffice,7,16.91929,78.64416,248169
1133,PO_1133,Dakoor -502270,502270,postoffice,7,17.82632,78.02881,171159
1134,PO_1134,Anneaparthy -508254,508254,postoffice,7,17.12615,79.21425,197239
1135,PO_1135,Aourpallyboa/wamangalso -509321,509321,postoffice,7,16.86454,78.6168,248233
1136,PO_1136,Dhanoora -502302,502302,postoffice,7,17.93387,78.04545,188394
1137,PO_1137,Aourpallyboa/wamangalso -509321,509321,postoffice,7,16.86454,78.6168,248206
1138,PO_1138,Elakurthi -502302,502302,postoffice,7,17.97001,78.07443,188393
1139,PO_1139,Apparedsypally Bpo -509327,509327,postoffice,7,16.88319,78.67405,243004
1140,PO_1140,Faizabad -502314,502314,postoffice,7,17.84413,78.12171,301064
1141,PO_1141,Bodangaparthi,,postoffice,7,17.03931,79.04751,184857
1142,PO_1142,Fareedpur,,postoffice,7,18.07665,78.19957,192494
1143,PO_1143,Gadi Peddapur -502270,502270,postoffice,7,17.89881,77.98041,323535
1144,PO_1144,Bottuguda -508001,508001,postoffice,7,17.05395,79.27138,164188
1145,PO_1145,Bottuguda -508001,508001,postoffice,7,17.05398,79.27131,164173
1146,PO_1146,Brahmana Vellemla -508114,508114,postoffice,7,17.15889,79.13823,199838
1147,PO_1147,Bramanapally -509327,509327,postoffice,7,16.83445,78.73395,243730
1148,PO_1148,Gangapur,,postoffice,7,18.12529,78.3218,192304
1149,PO_1149,Camera Bo -508245,508245,postoffice,7,16.92905,78.9413,191653
1150,PO_1150,Chalmeda -508253,508253,postoffice,7,17.12103,78.95994,327961
1151,PO_1151,Chamalapally -508256,508256,postoffice,7,16.90791,79.02465,181641
1152,PO_1152,Chandur S.O -508255,508255,postoffice,7,16.98188,79.06037,172913
1153,PO_1153,H Ghanpur -502113,502113,postoffice,7,18.0847,78.26279,192341
1154,PO_1154,Charikondaboa/wamangalso -509321,509321,postoffice,7,16.91931,78.64427,247963
1155,PO_1155,Cheekatimamidi -508244,508244,postoffice,7,17.09784,79.02006,353264
1156,PO_1156,Chervugattu -508254,508254,postoffice,7,17.17729,79.21497,197132
1157,PO_1157,Jogipet Lsg So -502270,502270,postoffice,7,17.83675,78.07169,169569
1158,PO_1158,Chillapur -508253,508253,postoffice,7,17.06604,78.89709,335548
1159,PO_1159,Chityala -508114,508114,postoffice,7,17.23348,79.1256,188596
1160,PO_1160,Kachapur -503101,503101,postoffice,7,18.19857,78.45395,229088
1161,PO_1161,Chityala S.O -508114,508114,postoffice,7,17.23316,79.12554,172766
1162,PO_1162,Kadloor,,postoffice,7,17.95918,77.99852,188398
1163,PO_1163,Clock Tower S.O(nalgonda) -508001,508001,postoffice,7,17.06122,79.27415,170726
1164,PO_1164,Dbpally -508245,508245,postoffice,7,16.95142,78.92901,191518
1165,PO_1165,Kanigal Ghanpur,,postoffice,7,17.97097,78.1592,188370
1166,PO_1166,Domalapalli,,postoffice,7,17.08053,79.13842,330658
1167,PO_1167,Katriyal,,postoffice,7,18.15249,78.35113,207998
1168,PO_1168,Khadirabad -502270,502270,postoffice,7,17.82924,77.9116,319730
1169,PO_1169,Kodpak,,postoffice,7,17.98027,78.13971,196306
1170,PO_1170,Gadiagouraram B.O -508250,508250,postoffice,7,16.83765,78.85403,298501
1171,PO_1171,Gattuppal -508253,508253,postoffice,7,17.07369,78.91918,335538
1172,PO_1172,Kothapalli -502331,502331,postoffice,7,18.05027,78.15604,196326
1173,PO_1173,Gujja -508253,508253,postoffice,7,17.14603,78.96647,327948
1174,PO_1174,Kowdipally -502316,502316,postoffice,7,17.89819,78.20629,297231
1175,PO_1175,Gundrampalli -508114,508114,postoffice,7,17.23344,78.98504,186534
1176,PO_1176,Kuchanpally -502130,502130,postoffice,7,18.06581,78.22921,192500
1177,PO_1177,Indurthy -508245,508245,postoffice,7,17.00479,78.90585,196558
1178,PO_1178,Kulcharam -502381,502381,postoffice,7,17.95619,78.19955,176447
1179,PO_1179,Injamoor B.O -508250,508250,postoffice,7,16.85427,78.8135,300942
1180,PO_1180,Jai Kesaram -508252,508252,postoffice,7,17.31054,78.96777,334925
1181,PO_1181,Kusangi -502270,502270,postoffice,7,17.89961,78.03797,305716
1182,PO_1182,Janampalli -508113,508113,postoffice,7,17.2844,79.12869,176769
1183,PO_1183,Laxmapur -502115,502115,postoffice,7,18.13143,78.36376,165892
1184,PO_1184,Jangaon -508253,508253,postoffice,7,17.11236,78.89956,335559
1185,PO_1185,Laxmapur -502115,502115,postoffice,7,18.13143,78.3638,169582
1186,PO_1186,Kaparthykhurd -508114,508114,postoffice,7,17.18485,79.0458,187877
1187,PO_1187,Laxminagar,,postoffice,7,18.04033,78.17474,196328
1188,PO_1188,Khudabaksh Pally -508245,508245,postoffice,7,17.02966,78.83757,196584
1189,PO_1189,Khudabaksh Pally -508245,508245,postoffice,7,17.02966,78.83757,196573
1190,PO_1190,Lonikhurdu,,postoffice,7,17.75313,77.83885,234733
1191,PO_1191,Khudabaksh Pally -508245,508245,postoffice,7,17.02966,78.83757,196746
1192,PO_1192,Kistapuram,,postoffice,7,17.17353,79.01849,187658
1193,PO_1193,Machavaram -502109,502109,postoffice,7,18.01601,78.24018,176432
1194,PO_1194,Kolkolpally -509327,509327,postoffice,7,16.88315,78.6741,243196
1195,PO_1195,Maddulwai -502130,502130,postoffice,7,18.06845,78.24507,192507
1196,PO_1196,Kompallu -508244,508244,postoffice,7,17.0998,79.00019,353282
1197,PO_1197,Maktha Bhupathipur,,postoffice,7,18.05355,78.31884,291260
1198,PO_1198,Kondapur -508244,508244,postoffice,7,17.05471,78.9905,353265
1199,PO_1199,Makthakyasaram,,postoffice,7,17.76511,77.88008,194716
1200,PO_1200,Koratikal,,postoffice,7,17.03281,79.09879,330616
1201,PO_1201,Kuramapally B.O 508250 -508250,508250,postoffice,7,16.8842,78.79466,301375
1202,PO_1202,Kurmedu B.O -508250,508250,postoffice,7,16.88168,78.74745,301830
1203,PO_1203,Manthoor -502293,502293,postoffice,7,17.7928,77.9325,171799
1204,PO_1204,Manthoor -502293,502293,postoffice,7,17.7968,77.93199,171744
1205,PO_1205,Lenkala Pally -508245,508245,postoffice,7,16.98756,78.94994,193089
1206,PO_1206,Marvelly -502270,502270,postoffice,7,17.85914,77.93932,319672
1207,PO_1207,Lohepally -508245,508245,postoffice,7,17.04071,78.83199,196646
1208,PO_1208,Lohepally -508245,508245,postoffice,7,17.04071,78.83199,196688
1209,PO_1209,Lohepally -508245,508245,postoffice,7,17.04074,78.83202,197051
1210,PO_1210,Medak Busstand Tso -502110,502110,postoffice,7,18.04156,78.26093,317388
1211,PO_1211,Madanapur B.Of -508250,508250,postoffice,7,16.92787,78.73843,304282
1212,PO_1212,Medak Head Post Office -502110,502110,postoffice,7,18.04897,78.26753,161378
1213,PO_1213,Madgul -509327,509327,postoffice,7,16.84898,78.68891,244402
1214,PO_1214,Medak Town Tso -502110,502110,postoffice,7,18.04669,78.25825,291279
1215,PO_1215,Madha Yadavally -508254,508254,postoffice,7,17.21655,79.20954,196881
1216,PO_1216,Mandra,,postoffice,7,17.25162,79.18997,184754
1217,PO_1217,Mudimanikyam -502273,502273,postoffice,7,17.76712,78.00604,167624
1218,PO_1218,Manyamchelka Tso -508001,508001,postoffice,7,17.05077,79.27522,164282
1219,PO_1219,Marriguda -508245,508245,postoffice,7,16.9402,78.8602,181955
1220,PO_1220,Munugode -508244,508244,postoffice,7,17.07658,79.07428,328790
1221,PO_1221,Munugode -508244,508244,postoffice,7,17.07652,79.07419,181073
1222,PO_1222,Muslapur -502269,502269,postoffice,7,17.92029,77.98036,316516
1223,PO_1223,Munugode So -508244,508244,postoffice,7,17.07652,79.07426,311629
1224,PO_1224,Nagapuram -502113,502113,postoffice,7,18.12375,78.25993,192368
1225,PO_1225,Nagsanpalli,,postoffice,7,18.00892,78.15953,196312
1226,PO_1226,Neradigunta -502270,502270,postoffice,7,17.8541,78.00429,305870
1227,PO_1227,Nalgonda Head Post Office -508001,508001,postoffice,7,17.05222,79.26463,163520
1228,PO_1228,Nampalli -508373,508373,postoffice,7,16.8856,78.95913,172048
1229,PO_1229,Nidzapla -502270,502270,postoffice,7,17.84865,77.87662,320575
1230,PO_1230,Nampally S.O -508373,508373,postoffice,7,16.88559,78.95923,294536
1231,PO_1231,Paithara -502381,502381,postoffice,7,17.96475,78.09387,188392
1232,PO_1232,Narketpalli S.Ow -508254,508254,postoffice,7,17.20528,79.19512,172370
1233,PO_1233,Palvancha,,postoffice,7,17.94444,78.03082,188395
1234,PO_1234,Narketpally -508254,508254,postoffice,7,17.20527,79.19516,196798
1235,PO_1235,Narsinghabhatla -508244,508244,postoffice,7,17.03183,79.13292,328759
1236,PO_1236,Pathur -502113,502113,postoffice,7,18.09165,78.3181,177980
1237,PO_1237,Nemmani -508254,508254,postoffice,7,17.23224,79.22554,196975
1238,PO_1238,Nerada -508114,508114,postoffice,7,17.18435,79.12571,179062
1239,PO_1239,Perur -502109,502109,postoffice,7,18.02594,78.21712,196335
1240,PO_1240,Neralla Pally -508245,508245,postoffice,7,16.93758,78.9709,191853
1241,PO_1241,Podichanpally -502125,502125,postoffice,7,18.05358,78.19172,196209
1242,PO_1242,Neralla Pally -508245,508245,postoffice,7,16.93758,78.9709,191841
1243,PO_1243,Posanipet -502270,502270,postoffice,7,17.85567,78.07929,173748
1244,PO_1244,Old Abadi Tso -508001,508001,postoffice,7,17.05311,79.25905,172524
1245,PO_1245,Ookondi -508244,508244,postoffice,7,17.13647,79.07554,328769
1246,PO_1246,Pothamshettypally -502109,502109,postoffice,7,17.98125,78.19877,176438
1247,PO_1247,Pagidimarri Bo -508004,508004,postoffice,7,17.00117,79.17421,327973
1248,PO_1248,Palivela,,postoffice,7,17.12971,79.03768,200930
1249,PO_1249,Prddareyypet -502293,502293,postoffice,7,17.7725,77.9525,171903
1250,PO_1250,Panthangi -508252,508252,postoffice,7,17.24899,78.95788,354857
1251,PO_1251,Rajpally S.O -502117,502117,postoffice,7,18.01885,78.29415,166291
1252,PO_1252,Peda Kaparthy -508114,508114,postoffice,7,17.23904,79.07397,192837
1253,PO_1253,Peddapuram B.O -508373,508373,postoffice,7,16.90148,78.97372,295680
1254,PO_1254,Rameswarpalli -503101,503101,postoffice,7,18.19016,78.39025,200412
1255,PO_1255,Peddapuram B.O -508373,508373,postoffice,7,16.90148,78.97372,295503
1256,PO_1256,Rameswarpalli -503101,503101,postoffice,7,18.19005,78.39004,238713
1257,PO_1257,Perepalli -508114,508114,postoffice,7,17.1889,79.01189,187311
1258,PO_1258,Rampur -502109,502109,postoffice,7,18.00206,78.22975,176436
1259,PO_1259,Pochampally -508256,508256,postoffice,7,16.89657,79.04705,181399
1260,PO_1260,Ramsanpally -502270,502270,postoffice,7,17.87737,78.02284,305753
1261,PO_1261,Polepally Ramnagar -508245,508245,postoffice,7,16.95375,78.73028,197116
1262,PO_1262,Rangampet -502381,502381,postoffice,7,17.9463,78.1186,188389
1263,PO_1263,Pulipalupula -508244,508244,postoffice,7,17.11132,79.11031,328783
1264,PO_1264,Puttapaka -508253,508253,postoffice,7,17.11365,78.93139,328175
1265,PO_1265,Puttapaka -508253,508253,postoffice,7,17.11361,78.93141,330734
1266,PO_1266,Ryalamadugu -502109,502109,postoffice,7,18.0373,78.23344,317350
1267,PO_1267,Sangaipet -502381,502381,postoffice,7,17.95576,78.1316,188371
1268,PO_1268,Ramagiri -508002,508002,postoffice,7,17.06371,79.26511,164169
1269,PO_1269,Ramannapet -508113,508113,postoffice,7,17.28946,79.0942,172659
1270,PO_1270,Sardhana -502130,502130,postoffice,7,18.08221,78.17603,192481
1271,PO_1271,Ramannapet -508113,508113,postoffice,7,17.28946,79.0942,172669
1272,PO_1272,Shetpallikalan -502117,502117,postoffice,7,17.95859,78.304,272229
1273,PO_1273,Siripuram -508113,508113,postoffice,7,17.29297,79.05628,175567
1274,PO_1274,Singoor Project -502293,502293,postoffice,7,17.76074,77.94801,171446
1275,PO_1275,Sivaneniguda -508114,508114,postoffice,7,17.25717,79.12791,188602
1276,PO_1276,Sirpura -502314,502314,postoffice,7,17.8294,78.13988,168680
1277,PO_1277,Slbc G V Gudem -508004,508004,postoffice,7,17.02471,79.24792,172562
1278,PO_1278,Sirpura -502314,502314,postoffice,7,17.8294,78.13988,295333
1279,PO_1279,Somakkapet -502314,502314,postoffice,7,17.86857,78.14127,305055
1280,PO_1280,"Superintendent Of Post Offices, Nalgonda Division -508001",508001,postoffice,7,17.05243,79.26458,172537
1281,PO_1281,Survail -508253,508253,postoffice,7,17.16009,78.92911,327924
1282,PO_1282,Swamivari Lingotam -508252,508252,postoffice,7,17.29456,78.94947,334789
1283,PO_1283,Sureddy Itikyal -502273,502273,postoffice,7,17.78138,78.02515,167651
1284,PO_1284,T.P.Gouraalram B.O -508373,508373,postoffice,7,16.88012,78.89002,312731
1285,PO_1285,Sureddy Itikyal -502273,502273,postoffice,7,17.78138,78.02515,167531
1286,PO_1286,T.P.Gouraalram B.O -508373,508373,postoffice,7,16.88012,78.89002,298014
1287,PO_1287,Takkellapally B.O -508250,508250,postoffice,7,16.92204,78.7765,302439
1288,PO_1288,Tallavellamla,,postoffice,7,17.14507,79.05305,200927
1289,PO_1289,Tekmal -502302,502302,postoffice,7,17.97499,78.03454,188396
1290,PO_1290,Theratpally -508253,508253,postoffice,7,17.05602,78.93637,335532
1291,PO_1291,Thondalvai -508254,508254,postoffice,7,17.25358,79.23771,202122
1292,PO_1292,Thimmaipally,,postoffice,7,18.12068,78.28383,192331
1293,PO_1293,Urumadla -508114,508114,postoffice,7,17.1916,79.09184,178473
1294,PO_1294,Vaddepally B.O -508373,508373,postoffice,7,16.89709,78.91984,296915
1295,PO_1295,Thonigandla,,postoffice,7,18.11889,78.37138,178108
1296,PO_1296,Vaddepally B.O -508373,508373,postoffice,7,16.897,78.91978,297480
1297,PO_1297,Tippapur -503101,503101,postoffice,7,18.19465,78.36539,200472
1298,PO_1298,Vailpally -508253,508253,postoffice,7,17.09664,78.89672,335552
1299,PO_1299,Togatta -502130,502130,postoffice,7,18.07598,78.24665,192515
1300,PO_1300,Vanipakala,,postoffice,7,17.24384,79.15619,184557
1301,PO_1301,Velmakanna -502316,502316,postoffice,7,17.91511,78.23385,298083
1302,PO_1302,Vattimarthi -508254,508254,postoffice,7,17.22571,79.15812,202121
1303,PO_1303,Venkatapur,,postoffice,7,18.03272,78.30822,291246
1304,PO_1304,Vattipally -508245,508245,postoffice,7,16.93842,78.87741,193136
1305,PO_1305,Wariguntham,,postoffice,7,17.94326,78.1706,176443
1306,PO_1306,Velmakanne -508253,508253,postoffice,7,17.09128,78.95602,330723
1307,PO_1307,Velmakanne -508253,508253,postoffice,7,17.09133,78.95585,330712
1308,PO_1308,Velmakanne -508253,508253,postoffice,7,17.09118,78.9559,334155
1309,PO_1309,Yellapur -502125,502125,postoffice,7,18.02925,78.19722,196331
1310,PO_1310,Velmakanne -508253,508253,postoffice,7,17.09127,78.956,335509
1311,PO_1311,Velminedu,,postoffice,7,17.23894,79.02368,186364
1312,PO_1312,Vtnagar -508245,508245,postoffice,7,16.97131,78.72976,197082
1313,PO_1313,Yenagandla,,postoffice,7,17.91956,78.0901,188374
1314,PO_1314,Yelikatta -508114,508114,postoffice,7,17.16331,79.10412,178687
1315,PO_1315,Yousufpet So -502331,502331,postoffice,7,18.04427,78.13627,196273
1316,PO_1316,Yelikatta -508114,508114,postoffice,7,17.16331,79.10412,178738
1317,PO_1317,Yellanki -508113,508113,postoffice,7,17.29288,79.02368,175401
1318,PO_1318,Ahamadipur Bo -502278,502278,postoffice,7,17.92392,78.72315,247220
1319,PO_1319,Yellareddiguda -508254,508254,postoffice,7,17.16448,79.20775,202395
1320,PO_1320,Almaipet -502273,502273,postoffice,7,17.77917,78.09399,167419
1321,PO_1321,Alwal,,postoffice,7,18.03881,78.67423,218500
1322,PO_1322,Anajipur Bo -502278,502278,postoffice,7,17.94993,78.65066,247064
1323,PO_1323,Anantsagar -502247,502247,postoffice,7,17.97864,78.48654,218475
1324,PO_1324,Ande -502108,502108,postoffice,7,18.05002,78.70014,208374
1325,PO_1325,Bandaposanipalli -502117,502117,postoffice,7,17.94899,78.32701,272227
1326,PO_1326,Bangla Venkatapur,,postoffice,7,17.84683,78.59136,272158
1327,PO_1327,Bayyaram Bo -502278,502278,postoffice,7,17.8809,78.67438,247533
1328,PO_1328,Bayyaram Bo -502278,502278,postoffice,7,17.8809,78.67438,251118
1329,PO_1329,Begumpet,,postoffice,7,17.85058,78.56894,272162
1330,PO_1330,Bejgaon Bo -502278,502278,postoffice,7,17.92228,78.67505,247475
1331,PO_1331,Bhagirthipalli -503101,503101,postoffice,7,18.1278,78.46656,228717
1332,PO_1332,Bhoompally,,postoffice,7,18.11343,78.59548,201687
1333,PO_1333,Bonal,,postoffice,7,18.03298,78.54469,218482
1334,PO_1334,Brahmanpally -502334,502334,postoffice,7,17.841,78.44799,272204
1335,PO_1335,Chandaipet,,postoffice,7,17.92984,78.51862,218505
1336,PO_1336,Chandampet -502255,502255,postoffice,7,17.9689,78.42173,272216
1337,PO_1337,Chandi -502334,502334,postoffice,7,17.78538,78.39009,172638
1338,PO_1338,Chegunta -502255,502255,postoffice,7,17.97374,78.46199,179207
1339,PO_1339,Chepur -508256,508256,postoffice,7,16.83967,79.14442,197509
1340,PO_1340,Chelmeda -502102,502102,postoffice,7,18.13807,78.50776,201702
1341,PO_1341,Cheppial,,postoffice,7,18.03583,78.65271,218496
1342,PO_1342,Chinna Gotimukla Bo -502313,502313,postoffice,7,17.76217,78.35049,170802
1343,PO_1343,Chinnashivnoor -502255,502255,postoffice,7,17.94076,78.48566,272214
1344,PO_1344,Chittapur,,postoffice,7,18.13103,78.61958,208389
1345,PO_1345,Daripalli,,postoffice,7,17.91989,78.39106,272224
1346,PO_1346,Dharmajipet,,postoffice,7,18.15411,78.64008,208385
1347,PO_1347,Dharmaram -502108,502108,postoffice,7,18.12273,78.68963,208378
1348,PO_1348,Dharmareddy Palli Bo -502278,502278,postoffice,7,17.8531,78.64656,246471
1349,PO_1349,Dilalpur Bo -502278,502278,postoffice,7,17.93804,78.67903,250170
1350,PO_1350,Dommat,,postoffice,7,18.01205,78.62243,218494
1351,PO_1351,Dongal Dharmaram,,postoffice,7,18.05886,78.49974,201552
1352,PO_1352,Donthi -502334,502334,postoffice,7,17.81483,78.41547,251995
1353,PO_1353,Doulatabad -502247,502247,postoffice,7,17.98898,78.56986,218486
1354,PO_1354,Gurrampode -508256,508256,postoffice,7,16.86699,79.11005,172761
1355,PO_1355,Engurthy,,postoffice,7,18.15345,78.59692,208391
1356,PO_1356,Etigaddakistapur B.O. -502301,502301,postoffice,7,17.97022,78.71908,193179
1357,PO_1357,Gavvalapalli -502248,502248,postoffice,7,17.98751,78.375,271982
1358,PO_1358,Ghanpur,,postoffice,7,17.80776,78.50388,271928
1359,PO_1359,Ghanpur B O -502114,502114,postoffice,7,18.04827,78.74956,178435
1360,PO_1360,Gudikandula B O -502114,502114,postoffice,7,18.0552,78.73491,178515
1361,PO_1361,Gundareddypally -502335,502335,postoffice,7,17.86352,78.50965,172642
1362,PO_1362,Habshipur,,postoffice,7,18.13175,78.66898,208380
1363,PO_1363,Ibrahimpur,,postoffice,7,18.02388,78.52484,218478
1364,PO_1364,Indupriyal,,postoffice,7,17.9251,78.56189,218502
1365,PO_1365,Islampur,,postoffice,7,17.87359,78.4824,272207
1366,PO_1366,Issanagar -503125,503125,postoffice,7,18.18372,78.51294,181597
1367,PO_1367,Koppole -508256,508256,postoffice,7,16.9006,79.15299,180957
1368,PO_1368,Jaligaon Bo -502278,502278,postoffice,7,17.87217,78.65707,251134
1369,PO_1369,Jangapally,,postoffice,7,18.05043,78.60346,201677
1370,PO_1370,Kalvakunta -502102,502102,postoffice,7,18.09249,78.56297,201571
1371,PO_1371,Kangal B O -502114,502114,postoffice,7,18.03251,78.71865,195037
1372,PO_1372,Kasulabad,,postoffice,7,18.08627,78.65015,208395
1373,PO_1373,Khajapur,,postoffice,7,18.05761,78.38917,272018
1374,PO_1374,Khajipet -502316,502316,postoffice,7,17.81919,78.2749,304758
1375,PO_1375,Khazipoor,,postoffice,7,18.08498,78.5867,201579
1376,PO_1376,Kolgoor Bo -502278,502278,postoffice,7,17.9578,78.71049,251156
1377,PO_1377,Konapur -502102,502102,postoffice,7,18.11902,78.47729,201533
1378,PO_1378,Kondapuram,,postoffice,7,18.047,78.57179,201653
1379,PO_1379,Konyal -502314,502314,postoffice,7,17.76552,78.13311,296336
1380,PO_1380,Kuknoor,,postoffice,7,17.92037,78.32367,176453
1381,PO_1381,Kunthanpally -502335,502335,postoffice,7,17.85854,78.42615,168792
1382,PO_1382,Linga Purchase Bo -502313,502313,postoffice,7,17.78189,78.29977,171194
1383,PO_1383,Lingapur -502314,502314,postoffice,7,17.79319,78.14129,299685
1384,PO_1384,Nadikuda -508256,508256,postoffice,7,16.86548,79.1886,197504
1385,PO_1385,Lingapur Bo -502313,502313,postoffice,7,17.78201,78.29974,171244
1386,PO_1386,Majeedpally,,postoffice,7,17.82201,78.58165,272149
1387,PO_1387,Makkarajpet -502247,502247,postoffice,7,17.94942,78.52002,218506
1388,PO_1388,Manepalli,,postoffice,7,17.88536,78.28424,176450
1389,PO_1389,Mangalparthi,,postoffice,7,17.87553,78.30552,174014
1390,PO_1390,Mannewar Jalalpur,,postoffice,7,17.89503,78.30463,174024
1391,PO_1391,Manoharabad,,postoffice,7,17.76651,78.46824,271843
1392,PO_1392,Masaipet -502335,502335,postoffice,7,17.90521,78.46109,178888
1393,PO_1393,Pittalaguda -508256,508256,postoffice,7,16.89322,79.11349,180835
1394,PO_1394,Mirdoddi,,postoffice,7,18.07956,78.67808,208376
1395,PO_1395,Mirzapally,,postoffice,7,18.01712,78.41699,176463
1396,PO_1396,Mirzapally,,postoffice,7,18.01712,78.41699,176460
1397,PO_1397,Mirzapally,,postoffice,7,18.01712,78.41699,176459
1398,PO_1398,Mirzapally,,postoffice,7,18.01715,78.417,167953
1399,PO_1399,Moosapet -502313,502313,postoffice,7,17.74368,78.22642,168960
1400,PO_1400,Mothe,,postoffice,7,18.11093,78.6301,208392
1401,PO_1401,Mutrajpally -502316,502316,postoffice,7,17.83217,78.25594,302785
1402,PO_1402,Nacharam,,postoffice,7,17.82263,78.53379,272188
1403,PO_1403,Nagulapally -502335,502335,postoffice,7,17.86868,78.45716,168609
1404,PO_1404,Nagullapalli B.O -502313,502313,postoffice,7,17.75244,78.21419,169004
1405,PO_1405,Nagullapalli B.O -502313,502313,postoffice,7,17.75244,78.21419,169010
1406,PO_1406,Narlapur -502102,502102,postoffice,7,18.07452,78.54083,201559
1407,PO_1407,Narsapur -502313,502313,postoffice,7,17.73763,78.27784,168824
1408,PO_1408,Narsingee -502248,502248,postoffice,7,18.04429,78.42475,167927
1409,PO_1409,Naskal -502102,502102,postoffice,7,18.17113,78.54872,201693
1410,PO_1410,Nizampet -502102,502102,postoffice,7,18.12978,78.52744,201699
1411,PO_1411,Pallepahad B.O. -502301,502301,postoffice,7,17.94283,78.76281,193161
1412,PO_1412,Pambanda -502334,502334,postoffice,7,17.83997,78.38188,243063
1413,PO_1413,Panyal -502314,502314,postoffice,7,17.75132,78.12688,297028
1414,PO_1414,Parkibanda -502336,502336,postoffice,7,17.76488,78.43884,252049
1415,PO_1415,Pedda Chintha Junta Bo -502313,502313,postoffice,7,17.77425,78.26779,169261
1416,PO_1416,Pedda Gotimukla Bo. -502313,502313,postoffice,7,17.75315,78.37925,173206
1417,PO_1417,Peddamallareddy -503101,503101,postoffice,7,18.17313,78.46671,228758
1418,PO_1418,Tenepally -508256,508256,postoffice,7,16.87054,79.06749,181170
1419,PO_1419,Peddamasanpally B O -502372,502372,postoffice,7,18.01642,78.78902,178253
1420,PO_1420,Peddamasanpally B O -502372,502372,postoffice,7,18.01664,78.78913,354738
1421,PO_1421,Pidiched Bo -502278,502278,postoffice,7,17.90885,78.70623,247335
1422,PO_1422,Pillutla Bo. -502313,502313,postoffice,7,17.81032,78.32528,170877
1423,PO_1423,Pothareddypet -502102,502102,postoffice,7,18.12956,78.56955,201691
1424,PO_1424,Railapur -502316,502316,postoffice,7,17.83136,78.22779,302247
1425,PO_1425,Raipole Bo -502278,502278,postoffice,7,17.93829,78.62856,246961
1426,PO_1426,Ramasagar Bo -502278,502278,postoffice,7,17.89803,78.61798,246637
1427,PO_1427,Ramavaram Bo -502278,502278,postoffice,7,17.91574,78.58568,246795
1428,PO_1428,Ramayampet -502101,502101,postoffice,7,18.11829,78.43117,178307
1429,PO_1429,Ratnapur Bo. -502313,502313,postoffice,7,17.82669,78.34427,173209
1430,PO_1430,Ravelli -502336,502336,postoffice,7,17.81948,78.46698,271937
1431,PO_1431,Rayelapur,,postoffice,7,18.10209,78.49703,201546
1432,PO_1432,Reddipally -502255,502255,postoffice,7,17.98728,78.46997,168093
1433,PO_1433,Rudraram,,postoffice,7,18.08363,78.62802,201683
1434,PO_1434,Rustumpet -502313,502313,postoffice,7,17.74182,78.25595,168917
1435,PO_1435,Shankaraj Kondapur,,postoffice,7,17.98729,78.34726,291225
1436,PO_1436,Shankarampet -502248,502248,postoffice,7,17.98755,78.40517,272217
1437,PO_1437,Shivampet,,postoffice,7,17.7888,78.37178,173999
1438,PO_1438,Sikindaspur -502296,502296,postoffice,7,17.76144,78.1954,282394
1439,PO_1439,Singavatam Bo -502278,502278,postoffice,7,17.90641,78.72131,247275
1440,PO_1440,Sooraram,,postoffice,7,17.95087,78.3999,272220
1441,PO_1441,Surampally,,postoffice,7,17.98703,78.61167,218489
1442,PO_1442,Thadakapally B O -502114,502114,postoffice,7,18.06016,78.80192,178748
1443,PO_1443,Thirumalapur,,postoffice,7,17.94144,78.59659,271804
1444,PO_1444,Thoguta B.O. -502372,502372,postoffice,7,18.01352,78.71611,193200
1445,PO_1445,Toopran -502334,502334,postoffice,7,17.84411,78.47774,168375
1446,PO_1446,Tunki -502316,502316,postoffice,7,17.80752,78.22805,305938
1447,PO_1447,Uppulingapur,,postoffice,7,17.92896,78.36188,176455
1448,PO_1448,Velur -502336,502336,postoffice,7,17.80354,78.54534,271912
1449,PO_1449,Vemulaghat B.O. -502301,502301,postoffice,7,17.94665,78.7433,193164
1450,PO_1450,Venkatapur B O -502114,502114,postoffice,7,18.07844,78.77321,178655
1451,PO_1451,Venkatapur B O -502114,502114,postoffice,7,18.07844,78.77321,178729
1452,PO_1452,Venkatraopet Bo -502278,502278,postoffice,7,17.98412,78.67983,247763
1453,PO_1453,Waddepalli,,postoffice,7,17.87732,78.57693,272181
1454,PO_1454,Wadiaram,,postoffice,7,17.95921,78.46377,171614
1455,PO_1455,Yeldhurthy,,postoffice,7,17.9064,78.37305,169589
1456,PO_1456,Yellareddypet B O -502372,502372,postoffice,7,18.02783,78.76288,178336
1457,PO_1457,Zapthi Lingareddypally B.O. -502372,502372,postoffice,7,18.01141,78.69091,193186
1458,PO_1458,Zapti Shivnur,,postoffice,7,18.07324,78.4306,178432
1459,PO_1459,Kesireddy Pally -506221,506221,postoffice,7,17.84396,79.08544,166628
1460,PO_1460,506221 -506221,506221,postoffice,7,17.79787,78.99517,166969
1461,PO_1461,Ainapur -506355,506355,postoffice,7,17.90646,78.87611,167767
1462,PO_1462,Akkaram Bo -502311,502311,postoffice,7,17.82222,78.73974,245457
1463,PO_1463,Alimpur -506221,506221,postoffice,7,17.82633,79.01546,173340
1464,PO_1464,Alimpur -506221,506221,postoffice,7,17.82633,79.01551,166824
1465,PO_1465,Alirajpet B.O. -502281,502281,postoffice,7,17.78839,78.78136,193221
1466,PO_1466,Bandanagaram -506224,506224,postoffice,7,17.86202,79.05717,169538
1467,PO_1467,Chatllapally B.O. -502301,502301,postoffice,7,17.84418,78.85814,186005
1468,PO_1468,Chebarthy -502279,502279,postoffice,7,17.78245,78.73472,271813
1469,PO_1469,Chinna Kistapur B.O. -502301,502301,postoffice,7,17.87022,78.80891,186687
1470,PO_1470,Chiriyal -506223,506223,postoffice,7,17.92517,78.97113,173338
1471,PO_1471,Chunchanakota -506223,506223,postoffice,7,17.87462,78.9639,165952
1472,PO_1472,Chunchanakota -506223,506223,postoffice,7,17.87462,78.9639,165934
1473,PO_1473,Chunchanakota -506223,506223,postoffice,7,17.87462,78.9639,165978
1474,PO_1474,Chunchanakota -506223,506223,postoffice,7,17.87462,78.9639,165995
1475,PO_1475,Dabbakuntapally -506221,506221,postoffice,7,17.7955,78.94497,166835
1476,PO_1476,Dacharam Bo -502278,502278,postoffice,7,17.88175,78.72089,251137
1477,PO_1477,Doulapur B.O. -502281,502281,postoffice,7,17.77214,78.83687,193296
1478,PO_1478,Gangapur -506221,506221,postoffice,7,17.82797,78.99509,166827
1479,PO_1479,Gollapally B.O. -502281,502281,postoffice,7,17.80379,78.81882,186280
1480,PO_1480,Gouraram,,postoffice,7,17.77088,78.65858,272106
1481,PO_1481,Gujwail So -502278,502278,postoffice,7,17.84198,78.68314,246063
1482,PO_1482,Gurjakunta -506223,506223,postoffice,7,17.93941,79.01545,169944
1483,PO_1483,Guruvannapet -506355,506355,postoffice,7,17.87933,78.85728,167958
1484,PO_1484,Itikyal B.O. -502281,502281,postoffice,7,17.76535,78.77482,193247
1485,PO_1485,Jagadevpur S.O. -502281,502281,postoffice,7,17.76839,78.80637,193302
1486,PO_1486,Jalasingaram -508105,508105,postoffice,7,17.79683,78.88885,169693
1487,PO_1487,Kadavergu -506223,506223,postoffice,7,17.90728,78.93888,166599
1488,PO_1488,Katkur -506224,506224,postoffice,7,17.85838,79.02648,165955
1489,PO_1489,Katkur -506224,506224,postoffice,7,17.85838,79.02648,173342
1490,PO_1490,Katkur -506224,506224,postoffice,7,17.85839,79.02648,165754
1491,PO_1491,Katkur -506224,506224,postoffice,7,17.85838,79.02648,165727
1492,PO_1492,Kodakandla S.O. -502312,502312,postoffice,7,17.864,78.76111,193216
1493,PO_1493,Kodavatur -506221,506221,postoffice,7,17.82996,79.05211,166631
1494,PO_1494,Komuravelli -506355,506355,postoffice,7,17.93567,78.89166,167527
1495,PO_1495,Kondapak S O -502372,502372,postoffice,7,17.97244,78.8603,354807
1496,PO_1496,Kondapak S O -502372,502372,postoffice,7,17.97244,78.8603,358375
1497,PO_1497,Kondapak S.O. -502372,502372,postoffice,7,17.97251,78.86042,176120
1498,PO_1498,Konney -506221,506221,postoffice,7,17.81722,78.9563,166837
1499,PO_1499,Kuknoorpally S.O. -502301,502301,postoffice,7,17.8907,78.79631,193205
1500,PO_1500,Lingampalli -506223,506223,postoffice,7,17.82733,78.92663,166146
1501,PO_1501,Manghole B.O. -502301,502301,postoffice,7,17.91144,78.787,187242
1502,PO_1502,Mangole B.O. -502301,502301,postoffice,7,17.91144,78.787,187502
1503,PO_1503,Mangole B.O. -502301,502301,postoffice,7,17.91144,78.787,193154
1504,PO_1504,Markook -502279,502279,postoffice,7,17.75381,78.72118,272051
1505,PO_1505,Marmamula -506224,506224,postoffice,7,17.88133,79.04837,169602
1506,PO_1506,Meenajipet,,postoffice,7,17.76961,78.54827,271888
1507,PO_1507,Munigadapa B.O. -502312,502312,postoffice,7,17.81532,78.81826,186148
1508,PO_1508,Mustial -506224,506224,postoffice,7,17.89757,78.99711,165527
1509,PO_1509,Muthrajpalli Bo -502278,502278,postoffice,7,17.82513,78.68424,246169
1510,PO_1510,Mylavaram,,postoffice,7,17.80255,78.62984,272140
1511,PO_1511,Nagapuri -506223,506223,postoffice,7,17.86184,78.88486,166412
1512,PO_1512,Nagireddypally -506221,506221,postoffice,7,17.84276,78.96698,166831
1513,PO_1513,Narsaipally -506223,506223,postoffice,7,17.93939,79.01547,169732
1514,PO_1514,Nemtur,,postoffice,7,17.81536,78.59828,272145
1515,PO_1515,Padamatikesavapur -506223,506223,postoffice,7,17.92503,78.9711,169631
1516,PO_1516,Pamkunta -508105,508105,postoffice,7,17.76283,78.9068,192105
1517,PO_1517,Pamulaparthy -502279,502279,postoffice,7,17.7705,78.69539,272093
1518,PO_1518,Posanpally -506355,506355,postoffice,7,17.8786,78.87745,167865
1519,PO_1519,Pothireddypally -506223,506223,postoffice,7,17.88102,78.92038,166519
1520,PO_1520,Pregnapur S O -502311,502311,postoffice,7,17.83331,78.70535,245879
1521,PO_1521,Ramachandrapuram -506221,506221,postoffice,7,17.80281,78.98599,166851
1522,PO_1522,Rimmanaguda B.O. -502312,502312,postoffice,7,17.85905,78.74051,193312
1523,PO_1523,Salakpur Bo -506224,506224,postoffice,7,17.88697,79.03291,169624
1524,PO_1524,Salakpur Bo -506224,506224,postoffice,7,17.88697,79.03291,169739
1525,PO_1525,Salakpur Bo -506224,506224,postoffice,7,17.88697,79.03291,169623
1526,PO_1526,Salvapur -506223,506223,postoffice,7,17.8145,78.88303,166278
1527,PO_1527,Sircinagandla B O -502372,502372,postoffice,7,17.99687,78.83141,355105
1528,PO_1528,Sirigiripally Bo -502311,502311,postoffice,7,17.81968,78.72057,245580
1529,PO_1529,Sirsanagandla B.O. -502372,502372,postoffice,7,17.99681,78.83139,176209
1530,PO_1530,Theegul B.O. -502311,502311,postoffice,7,17.81943,78.76756,245254
1531,PO_1531,Thigul Narsapoor -502301,502301,postoffice,7,17.8599,78.8574,185857
1532,PO_1532,Thimmapur B.O. -502312,502312,postoffice,7,17.84302,78.79416,186907
1533,PO_1533,Thimmareddy Pally B.O. -502372,502372,postoffice,7,17.9371,78.85601,176035
1534,PO_1534,Thipparam B O -502301,502301,postoffice,7,17.9082,78.75272,193953
1535,PO_1535,Vechareni -506223,506223,postoffice,7,17.93528,78.94324,167410
1536,PO_1536,Veerannapet Bo -506224,506224,postoffice,7,17.86978,78.99144,169652
1537,PO_1537,Wargal,,postoffice,7,17.77325,78.61558,272137
1538,PO_1538,Wattipally B.O. -502312,502312,postoffice,7,17.82311,78.85225,186491
1539,PO_1539,Yerraballi -502279,502279,postoffice,7,17.75898,78.75393,272029
1540,PO_1540,Yerraballi B.O. -502301,502301,postoffice,7,17.92512,78.77289,193316
1541,PO_1541,Zapthi Nacharam B.O. -502372,502372,postoffice,7,17.99284,78.86735,176178
1542,PO_1542,506221 -506221,506221,postoffice,7,17.77223,79.07384,166974
1543,PO_1543,506221 -506221,506221,postoffice,7,17.76814,79.04599,166973
